place_id,name,latitud,longitud,rating,user_ratings_total,id_estatus,id_colonia,id_macro,id_lista_types,sector_1,sector_2,sector_3,sector_4,sector_5,sector_6,sector_7
ChIJ5eXcxHcAzoUR49qRBI1-qGc,LA CASA DEL PASTOR PERISUR,19.304941,-99.1911058,4.2,3321,1,1.0,1,"[45, 11]",True,False,False,False,False,False,False
ChIJhwPkeGgAzoURByMi2OzdEX0,SANBORNS,19.3037898,-99.1891609,4.1,5216,1,2.0,1,"[24, 7, 25, 70, 41, 45, 11, 42]",True,False,False,False,False,False,False
ChIJZVG7JXYAzoURRZNAPEIcXXw,MR SUSHI,19.3047382,-99.1896424,3.4,317,1,1.0,1,"[45, 11]",True,False,False,False,False,False,False
ChIJq9lXxHcAzoURDOmBUKMGsbQ,SBARRO,19.3045771,-99.1893048,4.2,501,1,3.0,1,"[45, 11]",True,False,False,False,False,False,False
ChIJb9FZgNj_zYUReA9CqDJmD-M,ITALIANNI'S,19.3040107,-99.1900659,4.1,3357,1,4.0,1,"[45, 11]",True,False,False,False,False,False,False
ChIJP_vcMXYAzoURuqVPuWq_Lj8,MAISON KAYSER PERISUR,19.3039353,-99.1902297,4.4,3309,1,5.0,1,"[18, 70, 41, 45, 11]",True,False,False,False,False,False,False
ChIJLdA8kdj_zYURy-E3WZDE-kA,LOS CANARIOS,19.3048423,-99.1907155,4.3,3082,1,6.0,1,"[45, 11]",True,False,False,False,False,False,False
ChIJ1UGEktj_zYURpsP-1LC9bDw,LA CERVECERIA DE BARRIO,19.3046493,-99.191228,4.6,4057,1,7.0,1,"[25, 45, 11]",True,False,False,False,False,False,False
ChIJVVVVhdj_zYURsP7K8mSBLVU,LA TERRAZA PALACIO PERISUR,19.3038945,-99.1918482,4.4,5183,1,8.0,1,"[45, 11]",True,False,False,False,False,False,False
ChIJbYe3FNn_zYURt2VAaP2MNFQ,SUBWAY,19.3041071,-99.191945,4.3,363,1,9.0,1,"[45, 11]",True,False,False,False,False,False,False
ChIJc--3_tr_zYURXmdk3JMg63k,MI GUSTO ES,19.301794,-99.1961058,4.4,2441,1,10.0,1,"[45, 11]",True,False,False,False,False,False,False
ChIJHdRgw3cAzoURAi66N-ZL1OI,CAFEBRERIA EL PENDULO,19.3039706,-99.1913546,4.5,5154,1,7.0,1,"[46, 18, 41, 45, 11]",True,False,False,False,False,False,False
ChIJxYNTT3AAzoUR2KEQfh0ezF8,KFC,19.3038697,-99.1805824,3.7,2673,1,11.0,1,"[14, 17, 45, 11]",True,False,False,False,False,False,False
ChIJqbumKnYAzoURGbqpRQEtv4s,RESTAURANTE GARABATOS PERISUR,19.3044996,-99.1888575,4.4,3107,1,12.0,1,"[18, 70, 17, 41, 45, 11]",True,False,False,False,False,False,False
ChIJvf3Dh9j_zYUR5etQFpAl2Bw,MIYAKO PERISUR,19.3040053,-99.1888575,4.5,2553,1,2.0,1,"[45, 11]",True,False,False,False,False,False,False
ChIJ5eXcxHcAzoUR1PvuU0xza-c,SIXTIES BURGER,19.3045857,-99.1894528,3.8,814,1,13.0,1,"[45, 11]",True,False,False,False,False,False,False
ChIJcVD1JnYAzoUR5at7i6LvbnQ,KFC,19.3047098,-99.1896606,3.6,1243,1,7.0,1,"[14, 17, 45, 11]",True,False,False,False,False,False,False
ChIJJ91GJnYAzoUR79lpZh7a6IA,MCDONALD'S,19.3046285,-99.1896371,3.8,1796,1,13.0,1,"[45, 11]",True,False,False,False,False,False,False
ChIJJVVOT3AAzoUR5qqPIiqPZGE,PIZZA HUT,19.3038794,-99.1804499,4.0,1520,1,1.0,1,"[45, 11]",True,False,False,False,False,False,False
ChIJHeIAZgABzoURgfC5Zx6_39Q,CARL'S JR.,19.3048959,-99.1892179,3.5,43,1,1.0,1,"[45, 11]",True,False,False,False,False,False,False
ChIJ7XZw7nABzoURonvAJFLDKms,EL FAROLITO PERISUR,19.3043779,-99.1896673,4.1,8,1,14.0,1,"[45, 11]",True,False,False,False,False,False,False
ChIJI7vB_88BzoURyyQJOCDqic4,EXPERIENCIA GOURMET LIVERPOOL,19.3043779,-99.1896673,4.2,1197,1,14.0,1,"[45, 11]",True,False,False,False,False,False,False
ChIJGY5H9Qb_zYURtVMydIyL-kE,STARBUCKS PERISUR RESERVE,19.3048,-99.19,4.4,523,1,1.0,1,"[18, 45, 11, 41]",True,False,False,False,False,False,False
ChIJ3dQoiY8BzoURzQFZmR3-HvA,RESTAURANTE LIVERPOOL,19.3042002,-99.1896238,2.3,73,1,7.0,1,"[45, 11]",True,False,False,False,False,False,False
ChIJZ1Rxhpf_zYURFILCkam5k18,THE CHEESECAKE FACTORY PERISUR,19.3045546,-99.1901196,4.5,4572,1,1.0,1,"[18, 25, 45, 11, 41]",True,False,False,False,False,False,False
ChIJRf5Ydn4BzoURqfdj9PP1Bl4,MEXICANO AL 100,19.30422709999999,-99.1898006,1.9,10,1,1.0,1,"[45, 11]",True,False,False,False,False,False,False
ChIJR8jvphYBzoURirNV_-1tUUE,DOMINO'S PERISUR,19.304316,-99.188971,3.7,376,1,2.0,1,"[14, 17, 45, 11]",True,False,False,False,False,False,False
ChIJBeT2ewD_zYURkEcbmfayHZ4,CENTRO COMERCIAL PERISUR,19.3044856,-99.190217,4.7,153,1,7.0,1,"[45, 11]",True,False,False,False,False,False,False
ChIJC0QJ3jD_zYURGEVYE1Wguxc,SUSHI ROLL,19.3043912,-99.1904043,4.4,2112,1,1.0,1,"[45, 11]",True,False,False,False,False,False,False
ChIJJYrgebsBzoURMgaLN2q__9Q,LUCKY BONES,19.30458399999999,-99.1905974,4.5,135,1,1.0,1,"[45, 11]",True,False,False,False,False,False,False
ChIJLUc3LJf_zYURjNPy6zwzKBM,FONDA ARGENTINA PERISUR,19.30458399999999,-99.1905974,4.1,304,1,1.0,1,"[45, 11]",True,False,False,False,False,False,False
ChIJVX2evFv_zYURchfreFIA52E,GREEN GRASS PERISUR,19.303739,-99.190184,4.4,200,1,15.0,1,"[45, 11]",True,False,False,False,False,False,False
ChIJxdrpZPQBzoURTX9bxs9Hz5g,LE MACARON BOUTIQUE LIVERPOOL PERISUR,19.3042144,-99.1882919,3.4,5,1,1.0,1,"[45, 11]",True,False,False,False,False,False,False
ChIJUQ-Iftj_zYURtkRLf5oyQAg,ITZU,19.3036803,-99.1902066,2.6,55,1,7.0,1,"[45, 11]",True,False,False,False,False,False,False
ChIJfwdhudn_zYURvpPyJXCW5U0,STAR GRILL,19.3045316,-99.1911815,4.7,555,1,7.0,1,"[45, 11]",True,False,False,False,False,False,False
ChIJMwgOUhv_zYURWADMnwotMNw,CREPERIE DE LA PAIX PERISUR,19.3045316,-99.1911815,2.0,1,1,7.0,1,"[45, 11]",True,False,False,False,False,False,False
ChIJRym6BUP_zYURfIeA-jBHQB4,EL RESTAURANTE PALACIO PERISUR,19.3045316,-99.1911815,3.8,31,1,7.0,1,"[45, 18, 25, 11, 41]",True,False,False,False,False,False,False
ChIJp21F6rD_zYURyKEXQo2VHyg,ANIMATION CAFE,19.3038249,-99.1880988,4.0,1118,1,14.0,1,"[45, 11]",True,False,False,False,False,False,False
ChIJbQBeUt3_zYURSv2ytJYp7w4,FOGO DE CHAO PERISUR,19.3032542,-99.1901517,4.9,11279,1,1.0,1,"[45, 11]",True,False,False,False,False,False,False
ChIJo3KeewABzoUR8w9eWIibXXE,TACOS Y BURGER GRILL,19.3056112,-99.1876852,5.0,1,1,1.0,1,"[45, 11]",True,False,False,False,False,False,False
ChIJzZyzYHYAzoURTu1KHD63iio,TACOS LA CARPA,19.3055295,-99.1875969,4.1,246,1,1.0,1,"[45, 11]",True,False,False,False,False,False,False
ChIJ5b4l5YIBzoURBr6zVKDsChQ,TACOS PERISUR,19.305665,-99.187657,4.4,20,1,1.0,1,"[45, 11]",True,False,False,False,False,False,False
ChIJJbKiQlsBzoURmdtI9TCR8fo,EL RINCON DEL CRACK GOURMET,19.305665,-99.187657,4.5,19,0,16.0,1,"[45, 11]",True,False,False,False,False,False,False
ChIJ110OZQABzoURauXswpWiBoQ,TACOS DE MIXIOTE “EL MIXIOTITO DE ORO” L,19.3028171,-99.1894119,4.5,83,1,1.0,1,"[45, 11]",True,False,False,False,False,False,False
ChIJ_VWFK8H_zYURfxB1UvSHFDU,SLIDERS PALACIO DE HIERRO PERISUR,19.3039888,-99.1915826,4.3,303,1,2.0,1,"[45, 11]",True,False,False,False,False,False,False
ChIJI5uPMFYBzoUR3EgStY4jPWo,SR.CHILAQUILES,19.30555069999999,-99.1873739,5.0,7,1,2.0,1,"[45, 11]",True,False,False,False,False,False,False
ChIJ2RtbIJX_zYURWGTB3KL0GWI,LA CANTINA PALACIO PERISUR,19.3043362,-99.1917838,3.8,98,1,7.0,1,"[45, 11]",True,False,False,False,False,False,False
ChIJnTAkwfv_zYURuGIeLy9wrkI,LE PAIN QUOTIDIEN,19.3041071,-99.191945,4.4,80,1,17.0,1,"[45, 18, 70, 11, 41]",True,False,False,False,False,False,False
ChIJfaD1OwD_zYUR09aCXgKCrKA,PELTRE LONCHERIA PERISUR,19.3040571,-99.1919665,3.9,110,1,1.0,1,"[45, 11]",True,False,False,False,False,False,False
ChIJ93siIAD_zYUR7jw7m_Samlo,CANCINO,19.3039784,-99.1919481,4.7,199,1,1.0,1,"[45, 11]",True,False,False,False,False,False,False
ChIJucRo2xr_zYURI1_5TOXgG0Y,EL CAFE PALACIO PERISUR,19.3039113,-99.1919568,3.8,47,1,2.0,1,"[45, 11]",True,False,False,False,False,False,False
ChIJY5Fd6lb_zYURfVMmAeC7AqU,TAQUERIA EL CALIFA (TERRAZA PALACIO PERISUR),19.3039461,-99.1920168,4.3,24,1,1.0,1,"[45, 11]",True,False,False,False,False,False,False
ChIJJ6onKg8BzoUR-6erc6nOHWg,JUANITA'S HOT DOGS Y HAMBURGUESAS,19.3020849,-99.189138,5.0,2,1,10.0,1,"[45, 11]",True,False,False,False,False,False,False
ChIJnwiOyvUBzoUR0Ad68mdC6Bg,QUESADILLAS Y GORDITAS,19.3071016,-99.1869266,4.0,1,1,1.0,1,"[45, 11]",True,False,False,False,False,False,False
ChIJpxqKNBb_zYURaisJTTmn5XM,LA CHILAQUILIZA,19.30769729999999,-99.1913995,4.3,4,1,2.0,1,"[45, 11]",True,False,False,False,False,False,False
ChIJv75_reABzoURmou4oC9fGdw,TACOS DE GUISADO LAS CAZUELAS ARIS,19.30511809999999,-99.1857978,4.0,2,1,1.0,1,"[45, 11]",True,False,False,False,False,False,False
ChIJeQ-8FSoBzoURjeZenxjlANA,MATI & SILVIA,19.30512,-99.1857636,5.0,2,1,1.0,1,"[45, 11]",True,False,False,False,False,False,False
ChIJY6ugXQABzoURRyypTEgFlTE,TOSTADAS VIOLETA,19.3051229,-99.1857334,4.4,7,1,1.0,1,"[45, 11]",True,False,False,False,False,False,False
ChIJqa_Vqm3_zYURGyiLL4swBYk,TACOS DE CANASTA LA ROCA,19.3032895,-99.1933088,4.3,76,1,18.0,1,"[45, 11]",True,False,False,False,False,False,False
ChIJJb5UIQABzoURnkCLsDZ8F9U,ANIMACION CAFE,19.3014963,-99.187237,5.0,1,1,19.0,1,"[45, 11]",True,False,False,False,False,False,False
ChIJZZFGwb3_0YURZbU5_NelII0,EL GLOBO,19.3044911,-99.1910415,4.0,350,1,2.0,1,"[18, 70, 11, 41]",True,False,False,False,False,False,False
ChIJz9-s1HcAzoURdE0fRu2VeHM,HAAGEN-DAZS,19.304376,-99.1890049,4.5,837,1,7.0,1,"[18, 11, 41]",True,False,False,False,False,False,False
ChIJJw3agNj_zYURrJo_6vHxZ-E,STARBUCKS PERISUR,19.3039072,-99.1888903,4.3,4433,1,7.0,1,"[18, 11, 41]",True,False,False,False,False,False,False
ChIJAec2Mlr_zYURQrX1FJQO5n8,BUCRA COFFEE PERISUR,19.3040122,-99.1902687,4.7,501,1,1.0,1,"[18, 11, 41]",True,False,False,False,False,False,False
ChIJt_bLe40BzoURwg4_vgaY8o0,EL PATIO PEDREGAL,19.3056552,-99.1881115,4.6,59,1,7.0,1,"[18, 11, 41]",True,False,False,False,False,False,False
ChIJhe9RODT_zYUROlCYIxBODX0,CAFE LANCE WYMAN,19.3043388,-99.1918088,4.4,13,1,7.0,1,"[18, 11]",True,False,False,False,False,False,False
ChIJI1XjXQABzoURLTHxNEhuFJw,DESAYUNOS MELI,19.3020515,-99.18835,3.7,14,1,10.0,1,"[18, 11, 41]",True,False,False,False,False,False,False
ChIJhU4KbwD_zYURTjImM7VUj4E,ZACATEPETL DESAYUNOS,19.3030278,-99.193152,5.0,1,1,7.0,1,"[18, 11, 41]",True,False,False,False,False,False,False
ChIJJ0vU3tn_zYURNVQsYP32w64,CAFETERIA LA ESPERANZA,19.3011384,-99.1930924,3.9,77,1,10.0,1,"[18, 11, 41]",True,False,False,False,False,False,False
ChIJp2AC_yoBzoURCmCX5n43TZ4,TANGO'S BARBER,19.3049838,-99.1840432,4.4,33,1,1.0,1,"[18, 69, 11, 42, 41]",True,False,False,False,False,False,False
ChIJ7Uy9rVsBzoURjWGWnOg6-BA,UNO PA' LLEVAR CAFE,19.3049879,-99.1839931,5.0,1,1,20.0,1,"[18, 11]",True,False,False,False,False,False,False
ChIJx3wyP54BzoURCNKyw1IPkEY,TRES 21 ARTE - CAFE,19.3037693,-99.183965,4.5,23,1,1.0,1,"[18, 11, 41]",True,False,False,False,False,False,False
ChIJP2SdD6oBzoURxKw4ug7Or7g,CAFETERIA DE LA UNIDAD DE POSGRADO,19.3093221,-99.1851332,2.8,22,1,21.0,1,"[18, 11, 41]",True,False,False,False,False,False,False
ChIJuYAU7HQAzoURk1HSMRQjH6o,COFFEE CAPITAL ECONOMICS GRADUATE,19.3108889,-99.1860402,4.4,46,1,21.0,1,"[18, 11]",True,False,False,False,False,False,False
ChIJPzmTJAABzoURD0r8JJBTcQ4,ELOTES Y ESQUITES “EL DESGRACIADO”,19.2978508,-99.1858601,4.4,7,1,19.0,1,"[18, 41, 45, 11]",True,False,False,False,False,False,False
ChIJp90NvqoBzoURFCOjysQysg0,RUMBO CAFE,19.3113367,-99.1850036,5.0,8,1,22.0,1,"[18, 41, 45, 11]",True,False,False,False,False,False,False
ChIJXbrA9Ar_zYURiir7-GbetpU,LA CHIQUITA,19.2970103,-99.1911166,4.1,10,1,10.0,1,"[18, 41, 11]",True,False,False,False,False,False,False
ChIJRyriRQD_zYURcFpOyM-huxA,GOURMET SOLUTIONS,19.2979247,-99.1941561,5.0,2,1,23.0,1,"[18, 41, 11]",True,False,False,False,False,False,False
ChIJFS3vUQABzoURnnExixVNyAk,MIGUEL ANGEL,19.3048575,-99.1804228,3.7,327,1,1.0,1,"[18, 41, 11]",True,False,False,False,False,False,False
ChIJr_1HJ_0BzoURlnWxKoaPV9U,MAISON KAYSER OFICINAS ELEKTRA Y BANCO AZTECA,19.2967472,-99.185951,5.0,22,1,24.0,1,"[70, 18, 41, 11]",True,False,False,False,False,False,False
ChIJyW_W984BzoUR8poPu8otLX4,DESAYUNOS EDWIN,19.3040147,-99.1800502,5.0,4,1,25.0,1,"[18, 11]",True,False,False,False,False,False,False
ChIJFWLkdz4BzoURwpIWTVHh2wY,RAD RUSH,19.3043779,-99.1896673,4.1,553,1,7.0,1,[25],True,False,False,False,False,False,False
ChIJH_-aVgb_zYURZudYwYsp1nA,LA BARRA PALACIO PERISUR,19.3036803,-99.1902066,3.8,236,1,26.0,1,[25],True,False,False,False,False,False,False
ChIJ2cO6B_P_zYURV-rPtLamh6I,CHAMPAGNE BAR MOET,19.304571,-99.1920684,3.6,29,1,14.0,1,[25],True,False,False,False,False,False,False
ChIJw15UcAABzoURGukRzeO9lYY,LA ESCONDIDA DRINKS SNACKS,19.3074846,-99.1871265,3.4,3967,1,27.0,1,[25],True,False,False,False,False,False,False
ChIJhRj8dgABzoURDRrHp9MSewE,IZTAPALAPA,19.3069496,-99.1861488,3.8,6,1,1.0,1,[25],True,False,False,False,False,False,False
ChIJtWLTCAABzoUR8OcMVg57x7E,POLANCO,19.3060642,-99.1825749,3.6,11,1,1.0,1,[25],True,False,False,False,False,False,False
ChIJ__-_0ncAzoURuUfXbbruans,CREPES & WAFFLES PERISUR CIUDAD DE MEXICO,19.303739,-99.190184,4.5,2837,1,2.0,1,"[70, 41, 11]",True,False,False,False,False,False,False
ChIJ2wBWfXYAzoURuw4xFI3owhQ,KRISPY KREME PERISUR,19.3041495,-99.1882396,4.1,537,1,13.0,1,"[70, 41, 11]",True,False,False,False,False,False,False
ChIJlWs4EwD_zYUR4RjoIyYzqnw,2DA SUCURSAL EL GLOBO,19.30488429999999,-99.1910086,4.0,1,1,1.0,1,"[70, 41, 11]",True,False,False,False,False,False,False
ChIJmS1dxpv_zYURnC6F-eSBJek,MARICU COCINA DULCE,19.3043388,-99.1918088,3.5,48,1,1.0,1,"[70, 41, 11]",True,False,False,False,False,False,False
ChIJq9lXxHcAzoURE5cwYBfVJxs,LE MACARON BOUTIQUE,19.3043784,-99.1918752,4.3,42,1,1.0,1,"[70, 41, 11]",True,False,False,False,False,False,False
ChIJ1ZOpF_sBzoURs1IAQa9SAeE,KRISPY KREME WALMART PERISUR,19.30640679999999,-99.1873094,3.7,21,1,28.0,1,"[70, 41, 11]",True,False,False,False,False,False,False
ChIJjxUTvAUBzoURcRdfvRObjyU,POSTREZA,19.3054879,-99.182835,4.2,36,1,29.0,1,"[70, 41, 11]",True,False,False,False,False,False,False
ChIJ1V5MWxz_zYURMdq53Jxv8Vg,MAI BAKERY REPOSTERIA,19.2979144,-99.1912674,4.2,25,1,10.0,1,"[70, 41, 11]",True,False,False,False,False,False,False
ChIJ6Tg0khIBzoUR6owT-MYapLI,LA HOGAZA DE TLON,19.2973845,-99.1874798,4.7,395,1,19.0,1,"[70, 41, 11]",True,False,False,False,False,False,False
ChIJz6E6fXYAzoURO-eSu-K4FB8,WALMART,19.3063286,-99.1872956,4.2,19803,1,2.0,2,"[24, 10, 19, 41, 11]",False,True,False,False,False,False,False
ChIJxZfE5XgAzoUR2KjBowRBinY,SERVISOL,19.2970766,-99.1878021,4.9,7,1,19.0,2,"[10, 19, 41, 11]",False,True,False,False,False,False,False
ChIJjxKttWkAzoURrjlv5sk4vLM,OXXO CUICUILCO MEX,19.3039373,-99.1800896,3.8,179,1,25.0,2,"[39, 5, 58, 64, 41, 11]",False,True,False,False,False,False,False
ChIJT8JwIdv_zYUR7efUIovmALY,LA EUROPEA PEDREGAL,19.30304989999999,-99.1971616,4.4,781,1,7.0,2,"[59, 11, 41]",False,True,False,False,False,False,False
ChIJqbumKnYAzoURkimJxAm3PdI,EL PALACIO DE HIERRO,19.3043007,-99.1918192,4.5,13695,1,7.0,2,"[24, 16, 41]",False,True,False,False,False,False,False
ChIJH71Zw3cAzoURM11f9zU-Wrs,ALDO CONTI ITALIA,19.3043723,-99.189428,4.3,593,1,7.0,2,"[16, 41]",False,True,False,False,False,False,False
ChIJ____P9z_zYUR9lWb4pFpvPM,CH CAROLINA HERRERA,19.3043615,-99.1917345,4.5,276,1,7.0,2,"[27, 16, 41]",False,True,False,False,False,False,False
ChIJvf3Dh9j_zYUR68FX9hBaBH8,FERRIONI,19.3044699,-99.1907331,4.2,31,1,7.0,2,"[16, 41]",False,True,False,False,False,False,False
ChIJp-BELnYAzoURSpKWvuhA6ic,IVONNE,19.3044484,-99.1893323,4.5,107,1,1.0,2,"[16, 41]",False,True,False,False,False,False,False
ChIJZ46WKXYAzoURMeVzAaNLWtI,BANANA REPUBLIC,19.3043779,-99.1896673,4.5,125,1,30.0,2,"[16, 41]",False,True,False,False,False,False,False
ChIJKZV7KXYAzoURgmYZ-yrbAvo,BERSHKA,19.3043498,-99.1896499,4.2,1421,1,6.0,2,"[16, 27, 41]",False,True,False,False,False,False,False
ChIJr1EkLnYAzoURE-cC1PnTzNM,VICTORIA'S SECRET,19.30439969999999,-99.1892346,4.4,279,1,1.0,2,"[16, 41]",False,True,False,False,False,False,False
ChIJ3_wHNHYAzoUR9zXFAMEtaig,LEVI’S,19.3043652,-99.1889986,4.3,199,1,2.0,2,"[16, 41]",False,True,False,False,False,False,False
ChIJWTewh9j_zYURaW_pWYDf8T4,SHASA,19.3044262,-99.1900783,4.1,614,1,1.0,2,"[16, 41]",False,True,False,False,False,False,False
ChIJ-XJ-LnYAzoURbNRCLSqE3Cc,AMERICAN EAGLE,19.3040673,-99.1897715,4.5,809,1,7.0,2,"[16, 41]",False,True,False,False,False,False,False
ChIJAU6Wjdj_zYURcnkwCwdWCOg,FULLSAND CENTRO COMERCIAL PERISUR,19.3040654,-99.18904,4.6,140,1,2.0,2,"[16, 41]",False,True,False,False,False,False,False
ChIJPVKtzHcAzoUROLvkkHs_jVA,DIOR BACKSTAGE STUDIO MEXICO,19.3041973,-99.1887492,4.2,105,1,1.0,2,"[16, 41]",False,True,False,False,False,False,False
ChIJJ71T03cAzoURuCkbUNXuFzE,CALVIN KLEIN,19.3038585,-99.1895206,4.5,244,1,2.0,2,"[16, 41]",False,True,False,False,False,False,False
ChIJjUcxgNj_zYURdfg9aa-IuHA,CHICCO,19.3039244,-99.190446,4.4,10,1,2.0,2,"[16, 41]",False,True,False,False,False,False,False
ChIJ589oftj_zYURz94bjejfydQ,SAINT LAURENT,19.3036803,-99.1902066,4.4,323,1,7.0,2,"[16, 41]",False,True,False,False,False,False,False
ChIJwTcHu-r_0YURaSb6wvfxjDg,"ADIDAS STORE MEXICO CITY, CENTRO COMERCIAL PERISUR",19.30368,-99.19021,4.2,799,1,7.0,2,"[27, 16, 41]",False,True,False,False,False,False,False
ChIJZU5siNj_zYUREegqtb5SDV0,MAX MARA CIUDAD DE MEXICO CENTRO COMERCIAL PERISUR,19.3039468,-99.1906338,4.5,4,0,17.0,2,"[16, 41]",False,True,False,False,False,False,False
ChIJNURAidj_zYUR88AcxrrCECg,LIZ MINELLI,19.3041029,-99.1908438,4.2,134,1,7.0,2,"[16, 41]",False,True,False,False,False,False,False
ChIJQy_2gNj_zYURQ-7QVt60eKo,PINEDA COVALIN,19.3042283,-99.1910093,4.5,54,1,1.0,2,"[16, 41]",False,True,False,False,False,False,False
ChIJw3lBi9j_zYURVOPlUCjGbp8,BIMBA Y LOLA,19.3042187,-99.1911912,4.4,54,1,13.0,2,"[16, 27, 6, 41]",False,True,False,False,False,False,False
ChIJdd45gtj_zYURzmFu5PCtXzU,DESIGUAL,19.3045228,-99.1913546,4.6,189,1,1.0,2,"[16, 41]",False,True,False,False,False,False,False
ChIJW8xSgNj_zYURNCRyk7ce2xg,SCAPPINO,19.3041474,-99.191363,4.4,145,1,31.0,2,"[16, 41]",False,True,False,False,False,False,False
ChIJuVnrg9j_zYURVWfDaLvpxX4,MANGO,19.3041153,-99.1913598,4.4,352,1,2.0,2,"[16, 41]",False,True,False,False,False,False,False
ChIJVVVVhdj_zYURKalFYOmJM4s,ADOLFO DOMINGUEZ,19.3039838,-99.1918402,4.6,9,1,7.0,2,"[16, 41]",False,True,False,False,False,False,False
ChIJkTUwCb__zYURob2Jw93Rd5M,CALZEDONIA,19.3027139,-99.1962245,3.0,2,1,13.0,2,"[16, 41]",False,True,False,False,False,False,False
ChIJxdPNJ3YAzoURSRpcIgruLOs,HIGH LIFE PERISUR,19.3043467,-99.1895221,4.0,85,1,2.0,2,"[16, 41]",False,True,False,False,False,False,False
ChIJIWonMXYAzoURhRRnp7s84c4,ROBERT'S,19.304345,-99.1895193,4.3,133,1,2.0,2,"[16, 41]",False,True,False,False,False,False,False
ChIJ5eXcxHcAzoURL8HJXlJgNAQ,CARLO GIOVANNI,19.30434619999999,-99.1905704,4.7,454,1,7.0,2,"[16, 41]",False,True,False,False,False,False,False
ChIJeQbMCPIBzoURTZUpIdO7iXE,AERIE,19.3044085,-99.1895158,2.3,4,1,2.0,2,"[16, 41]",False,True,False,False,False,False,False
ChIJHbZmjP0BzoURQv_Qw0pFzW8,BROWNIE - PDH PERISUR,19.3044085,-99.1895158,3.6,34,1,7.0,2,"[16, 41]",False,True,False,False,False,False,False
ChIJX-EZNMMBzoUR_U6pQrLS4ck,SIMORRA MEXICO PALACIO DE HIERRO PERISUR,19.3044085,-99.1895158,3.0,2,1,7.0,2,"[16, 41]",False,True,False,False,False,False,False
ChIJR6Bv3Xz_zYUR3Rc1pD05jvI,VALENTINO EL PALACIO DE HIERRO PERISUR,19.3044085,-99.1895158,4.5,22,1,7.0,2,"[16, 41]",False,True,False,False,False,False,False
ChIJSSiJg0sBzoURg_JgtZLwErw,TIMBERLAND,19.30439029999999,-99.1895564,4.1,58,1,1.0,2,"[27, 16, 41]",False,True,False,False,False,False,False
ChIJkWd28vEBzoURs1k-P0H7lns,NEW ERA | PERISUR,19.3043779,-99.1896673,3.7,14,1,7.0,2,"[16, 41]",False,True,False,False,False,False,False
ChIJVVURKXYAzoURDPHZGlWaUjI,JACK&JONES - LIVERPOOL PERISUR,19.3043779,-99.1896673,4.1,553,1,7.0,2,"[16, 41]",False,True,False,False,False,False,False
ChIJqQ7BMXYAzoURcRFOHhUcpkM,LACOSTE BOUTIQUE PERISUR,19.3043945,-99.1891413,4.8,171,1,13.0,2,"[16, 41]",False,True,False,False,False,False,False
ChIJRw8NqIf_zYURYtnmKujdO4w,GOLDEN GOOSE MEXICO CITY PDH PERISUR,19.3042758,-99.1896583,5.0,1,1,7.0,2,"[16, 41]",False,True,False,False,False,False,False
ChIJl_fUgdj_zYUR7R24jcjHbLw,MASSIMO DUTTI,19.3045561,-99.1900935,4.4,402,1,2.0,2,"[16, 41]",False,True,False,False,False,False,False
ChIJZ2E3gtj_zYURBkkgtEGkPTY,SFERA PERISUR,19.3044727,-99.1900868,4.4,1245,1,2.0,2,"[16, 41]",False,True,False,False,False,False,False
ChIJ4auSuSYBzoURzEUYlAA2L3Q,PARFOIS,19.3044325,-99.1887947,3.8,12,1,1.0,2,"[16, 41]",False,True,False,False,False,False,False
ChIJbVjMigX_zYUR2ByXWM_eCLg,FERRAGAMO,19.3042031,-99.1900035,5.0,1,1,2.0,2,"[27, 16, 41]",False,True,False,False,False,False,False
ChIJ5291jFn_zYURMnh68h_CUCI,STRADIVARIUS,19.3041755,-99.1890147,3.8,75,1,6.0,2,"[16, 41]",False,True,False,False,False,False,False
ChIJi9Rgw3cAzoURfnRTrsnmUv8,PULL&BEAR,19.3041755,-99.1890147,4.2,516,1,6.0,2,"[16, 41]",False,True,False,False,False,False,False
ChIJHdRgw3cAzoURJidync30zGk,ZARA,19.3041755,-99.1890147,4.2,2699,0,6.0,2,"[16, 41]",False,True,False,False,False,False,False
ChIJy5jHdb7_zYURQ0Y4Jdp7Hz4,HUGO SHOP,19.3039155,-99.1897105,4.3,93,1,14.0,2,"[16, 27, 41]",False,True,False,False,False,False,False
ChIJjdfXhkj_zYUR_iKHlBHizCA,JOYERIA ARISTOCRAZY PALACIO DE HIERRO PERISUR,19.3040107,-99.1900659,5.0,2,1,17.0,2,"[6, 16, 41]",False,True,False,False,False,False,False
ChIJi9Rgw3cAzoURc7Pbeg3jlEk,BENETTON,19.3038278,-99.189624,4.5,125,1,2.0,2,"[16, 41]",False,True,False,False,False,False,False
ChIJ6-EAK3YAzoUReU4TE1HyUIg,OYSHO,19.3041323,-99.190383,4.2,123,1,6.0,2,"[16, 41]",False,True,False,False,False,False,False
ChIJPziQXAABzoURk9dNCcTiOmo,LULULEMON,19.3042783,-99.1905014,4.0,13,1,2.0,2,"[16, 41]",False,True,False,False,False,False,False
ChIJUUZXotj_zYURwsHejSqG0RA,GOCCO PALACIO DE HIERRO PERISUR,19.305473,-99.190406,5.0,1,1,2.0,2,"[16, 41]",False,True,False,False,False,False,False
ChIJTUFjhsT_zYUR8Ngrzky1jKU,PEPE JEANS PERISUR,19.3044821,-99.1906898,4.0,1,0,32.0,2,"[16, 41]",False,True,False,False,False,False,False
ChIJye6ZStYBzoURmI-X6YV1TdE,JEAN PIERRE PERISUR,19.3039836,-99.1904144,4.5,53,1,1.0,2,"[27, 16, 41]",False,True,False,False,False,False,False
ChIJ589oftj_zYUR3Wzsl_brW-E,SALVATORE FERRAGAMO,19.303739,-99.190184,3.0,1,1,7.0,2,"[16, 41]",False,True,False,False,False,False,False
ChIJWZsOvKwBzoUR2iI4BF9DhR4,EMPORIO ARMANI,19.3036803,-99.1902066,5.0,1,1,14.0,2,"[16, 41]",False,True,False,False,False,False,False
ChIJN87hukL_zYURFwYSySC3TZc,AX ARMANI EXCHANGE,19.3036803,-99.1902066,3.8,236,1,7.0,2,"[16, 41]",False,True,False,False,False,False,False
ChIJ9wP4H73_zYURS_gIUEV9y20,BROWNIE (PERISUR),19.3043214,-99.1881735,5.0,2,1,33.0,2,"[16, 41]",False,True,False,False,False,False,False
ChIJ_xZ7iNj_zYURapz9JNje6nI,STUDIO F PERISUR,19.303999,-99.1906346,4.3,75,1,7.0,2,"[16, 41]",False,True,False,False,False,False,False
ChIJl90YDR4BzoURJVPHnjzx_6Y,WOMEN'SECRET,19.3034569,-99.1893007,3.1,20,1,1.0,2,"[16, 41]",False,True,False,False,False,False,False
ChIJLaxxiNj_zYURTyZpOAQXSF8,MARELLA,19.3039712,-99.1906319,4.5,2,0,13.0,2,"[16, 41]",False,True,False,False,False,False,False
ChIJU20n7tj_zYURn_lFvLlcRJo,SKECHERS,19.3042841,-99.1903834,4.3,418,1,2.0,2,"[27, 41]",False,True,False,False,False,False,False
ChIJz2H3MHYAzoURtWHEa7OaBDs,PRADA PERISUR,19.3043653,-99.1892555,4.7,51,1,2.0,2,"[27, 41]",False,True,False,False,False,False,False
ChIJk4KdKnYAzoURJmK3Am8bajk,FLEXI PERISUR,19.3053301,-99.189855,4.0,99,1,34.0,2,"[27, 41]",False,True,False,False,False,False,False
ChIJA59BLnYAzoUReSc6-Duc2Fg,TAF,19.3041475,-99.189721,4.3,604,1,4.0,2,"[27, 41]",False,True,False,False,False,False,False
ChIJTc9cMnYAzoURkQVPucqBjoY,PIKOLINOS,19.3041122,-99.18909,4.2,154,1,6.0,2,"[27, 41]",False,True,False,False,False,False,False
ChIJn8gOaMn-0YURv8Q2XfDWYI0,CAMPER,19.3041828,-99.1901789,4.9,249,1,14.0,2,"[27, 41]",False,True,False,False,False,False,False
ChIJq9lXxHcAzoURmzFmaALJALg,MICHEL DOMIT - PERISUR,19.3039262,-99.1897539,4.3,216,1,2.0,2,"[27, 41]",False,True,False,False,False,False,False
ChIJN3xVjdj_zYUR0ULJHsiEI6Q,VIA UNO,19.3045513,-99.1912595,3.7,3,1,1.0,2,"[27, 41]",False,True,False,False,False,False,False
ChIJRZR4osD_zYURVLfLGBoCOHQ,DOROTHY GAYNOR,19.3041071,-99.191945,4.3,252,1,35.0,2,"[27, 41]",False,True,False,False,False,False,False
ChIJ_UHtC0sBzoURtkNZccChx6I,CONVERSE PERISUR,19.3044302,-99.1888917,4.8,135,1,1.0,2,"[27, 41]",False,True,False,False,False,False,False
ChIJYxuqSff_zYUR42zcgY0YadY,DOLCE & GABBANA PERIFERICO SUR - ZAPATERIA,19.304141,-99.1900174,4.2,6,1,2.0,2,"[27, 41]",False,True,False,False,False,False,False
ChIJhTZa33cAzoURh45kSiUa8RA,ZAPATERIA GIACOMO GERI,19.3040135,-99.19004,5.0,1,1,1.0,2,"[27, 41]",False,True,False,False,False,False,False
ChIJDT4RoLH_zYUR2isI7eLxWXI,STEVE MADDEN,19.3039133,-99.1899142,4.3,27,1,13.0,2,"[27, 41]",False,True,False,False,False,False,False
ChIJMYTFn9EBzoURgOxGUe6YTJg,VANS,19.3043354,-99.1905114,4.3,127,1,2.0,2,"[27, 41]",False,True,False,False,False,False,False
ChIJe_Ti5rEBzoURdrne8fcVGd4,SIDHE 3D - LIVERPOOL PERISUR,19.304376,-99.1879524,4.8,171,1,7.0,2,"[27, 42, 41]",False,True,False,False,False,False,False
ChIJ-QOfjdj_zYURB0jFwJbcg50,CUADRA,19.3045093,-99.1910847,4.4,156,1,1.0,2,"[27, 16, 41]",False,True,False,False,False,False,False
ChIJESkNL-n_zYURYXNf0osWkGY,BOSS WOMENSWEAR SHOP,19.304034,-99.1910084,3.1,221,1,14.0,2,"[27, 16, 41]",False,True,False,False,False,False,False
ChIJu6KNsEH_zYURe9mDV81kuFA,ALDO,19.3041233,-99.1912577,4.8,4,1,36.0,2,"[27, 41]",False,True,False,False,False,False,False
ChIJ5eXcxHcAzoURupAQ1_7Nm0k,TENIS GAYHER,19.3029204,-99.1891373,5.0,2,1,1.0,2,"[27, 41]",False,True,False,False,False,False,False
ChIJL_tz4bz_zYURsgiIM-pOD2o,DOLCE & GABBANA,19.3040602,-99.1915614,4.3,1237,1,2.0,2,"[27, 16, 41]",False,True,False,False,False,False,False
ChIJdaXTPe7_zYURrAUceaNU1iM,Z ZEGNA CORNER (EL PALACIO DE HIERRO PERISUR),19.3043872,-99.1918146,1.0,1,1,7.0,2,"[27, 16, 41]",False,True,False,False,False,False,False
ChIJLelbfSH_zYURpQ6zFuZpl00,ERMENEGILDO ZEGNA BOUTIQUE,19.3043101,-99.1918632,4.7,43,1,7.0,2,"[27, 16, 41]",False,True,False,False,False,False,False
ChIJgTVHH0j_zYURksfE-nhn-38,PRONOVIAS PERISUR - VESTIDOS DE NOVIA,19.304049,-99.191821,4.5,104,1,13.0,2,"[27, 16, 41]",False,True,False,False,False,False,False
ChIJfTO8gdj_zYURZI9Fmy_e7rE,DOLCE & GABBANA TIENDA DE ROPA DE MUJER,19.3047572,-99.1920447,3.6,29,1,2.0,2,"[27, 6, 16, 41]",False,True,False,False,False,False,False
ChIJgXpAXgD_zYURm_ZA6JmOnTE,GOLDEN GOOSE PALACIO DE HIERRO PERISUR,19.3041676,-99.1920302,3.5,180,1,37.0,2,"[27, 41]",False,True,False,False,False,False,False
ChIJESBgkLQBzoURiCu9udKxSnA,PERILLA SHOES,19.3049333,-99.1836755,4.2,38,1,1.0,2,"[27, 41]",False,True,False,False,False,False,False
ChIJieDnVnb_zYUR0RxNOj5O5FI,TANGERINA BOUTIQUE,19.2978508,-99.1858601,4.6,13,1,38.0,2,"[27, 31, 16, 3, 42, 41]",False,True,False,False,False,False,False
ChIJ_VCjRFsAzoURSgAN3KgA8PU,STEREN SHOP,19.304611,-99.1894419,3.7,76,1,39.0,2,"[63, 41]",False,True,False,False,False,False,False
ChIJ4z0Zdtj_zYUR2cfNKAi-cz4,ISHOPMIXUP,19.3039379,-99.1896179,3.4,350,1,2.0,2,"[63, 41]",False,True,False,False,False,False,False
ChIJPZNvjtj_zYUR0VtKNFSwJTs,SONY STORE,19.3044609,-99.1908756,4.3,777,1,1.0,2,"[63, 41]",False,True,False,False,False,False,False
ChIJzzbCVSv_zYURKh8cyhXt8d4,ANKER INNOVATIONS STORE,19.3044734,-99.190738,5.0,6,1,40.0,2,"[63, 41]",False,True,False,False,False,False,False
ChIJm8WSuCv_zYUR_QvUfGW7_Cw,MOBO SHOP,19.3043302,-99.1910112,4.0,37,1,1.0,2,"[63, 41, 42]",False,True,False,False,False,False,False
ChIJwyGNShX_zYURysZcq236r6Y,SAMSUNG EXPERIENCE STORE | PERISUR,19.3041321,-99.1910783,4.1,803,1,1.0,2,"[63, 41]",False,True,False,False,False,False,False
ChIJjd5Egtf_zYURT98blZYivN8,QUINONES CORNEJO MARIA DE LA PAZ,19.3011782,-99.1936656,3.0,1,1,10.0,2,"[63, 41]",False,True,False,False,False,False,False
ChIJQy_2gNj_zYUR7q_ixyXGqiI,POTTERY BARN,19.3039527,-99.1886976,4.2,201,1,41.0,2,[8],False,True,False,False,False,False,False
ChIJu_k4s3cAzoURv6j61PbIvl0,HISTORIAS EN PAPEL PERISUR (LIVERPOOL PERISUR),19.3038514,-99.1883555,4.7,39,1,1.0,2,[8],False,True,False,False,False,False,False
ChIJm0NDqHsAzoURu2-BCnUgiBk,PLAZA CUICUILCO INBURSA,19.2974314,-99.1842699,4.4,26349,1,42.0,2,[8],False,True,False,False,False,False,False
ChIJhQcnon__zYURa0HR17b18uA,PERISUR,19.3041972,-99.1902838,4.5,102959,1,17.0,2,[8],False,True,False,False,False,False,False
ChIJiyv4frb_zYURIhwqFPlkkXQ,VILLA RICA PERISUR,19.3042783,-99.1905001,5.0,12,1,14.0,2,[8],False,True,False,False,False,False,False
ChIJZ4fQTgABzoURFPnie46K_F4,RT LIVERPOOL PERISUR,19.3038988,-99.188298,4.2,41,1,1.0,2,[8],False,True,False,False,False,False,False
ChIJp8otxDT_zYURqLzBGw3Kw84,POTTERY BARN KIDS,19.3039497,-99.1918399,4.2,33,1,7.0,2,[8],False,True,False,False,False,False,False
ChIJi9Rgw3cAzoURb6atV2y6f_8,LIVERPOOL,19.3041755,-99.188165,4.5,36335,1,14.0,2,"[24, 41]",False,True,False,False,False,False,False
ChIJtxnRKnYAzoUR4zMG0Bes9K4,SEARS PERISUR,19.3035517,-99.190086,4.4,10967,1,7.0,2,"[24, 41]",False,True,False,False,False,False,False
ChIJ49tsKWX_zYURQijnoERbHj8,NATURA BISSE X EL PALACIO DE HIERRO PERISUR,19.3043458,-99.1918391,3.6,2760,1,43.0,2,"[24, 41]",False,True,False,False,False,False,False
ChIJkZa6sZkBzoUR3LW3dRYk6f0,C&ML,19.3018158,-99.1897392,4.2,11,1,44.0,2,"[46, 41]",False,True,False,False,False,False,False
ChIJLfBf8w0BzoUR6LEYtqfhYAg,REVISTAS IMAN,19.30524,-99.1860789,5.0,3,0,45.0,2,"[46, 41]",False,True,False,False,False,False,False
ChIJgeF1M5MAzoURY4D81Dlahio,MARICELA BAHENA MOJICA,19.3064426,-99.1851399,3.8,6,1,1.0,2,"[46, 41]",False,True,False,False,False,False,False
ChIJCzhUFngAzoURaCxcloFbmFY,OLYMPIC VILLAGE SPORTS CENTER,19.29913329999999,-99.1879348,4.3,1672,1,46.0,3,"[15, 42]",False,False,True,False,False,False,False
ChIJpWA_ONb_zYURcOnR8Z40bXI,CORPORATE FAMILYFITNESS NELSONVARGAS,19.2971463,-99.1916142,4.3,26,1,10.0,3,"[15, 42]",False,False,True,False,False,False,False
ChIJO38a3XkAzoURD7lDZPWpcgQ,PESAS,19.3005292,-99.1858822,4.4,338,1,19.0,3,"[15, 42]",False,False,True,False,False,False,False
ChIJZ5_44OUBzoURsRdvQ67mJlM,URBAN GYMNASIUMS 69,19.3057137,-99.1801395,3.3,23,1,25.0,3,"[15, 42]",False,False,True,False,False,False,False
ChIJO38a3XkAzoURtPCBjSViLwA,GIBNACIIA OLIMPICA,19.3005292,-99.1858822,4.4,338,0,47.0,3,"[15, 42]",False,False,True,False,False,False,False
ChIJ4TrQ6OEBzoURMayjTBBMB0Q,MOSCOV PILATES STUDIO,19.3060618,-99.1827454,5.0,6,1,48.0,3,"[15, 42]",False,False,True,False,False,False,False
ChIJcb1MyeEBzoURDJUaG72dakQ,RIDE OR DIE PEDREGAL,19.30363,-99.1804568,4.4,7,1,1.0,3,"[15, 42]",False,False,True,False,False,False,False
ChIJU3ODkNj_zYURpQoox_iZmOI,GNC,19.3040758,-99.1888692,3.8,24,1,49.0,3,"[7, 19, 41, 11, 42]",False,False,True,False,False,False,False
ChIJ05Mi9Nr_zYURc5EHPvoXcvo,MAYPO,19.3023019,-99.1984681,5.0,2,1,50.0,3,"[7, 41, 42]",False,False,True,False,False,False,False
ChIJseY799r_zYUR3BwgS9dsx0s,PHARMA SHARED SERVICES,19.3025407,-99.1984784,4.5,4,1,50.0,3,"[7, 41, 42]",False,False,True,False,False,False,False
ChIJi9Rgw3cAzoURrVHEo8pEADc,BEJJANI HAIR AND BEAUTY SALON,19.3039576,-99.1906723,3.4,129,1,7.0,3,[31],False,False,True,False,False,False,False
ChIJ6eHQJNr_zYURUxQgRimJ9d0,AKU SPA,19.3027208,-99.1962241,4.0,10,1,7.0,3,"[31, 69, 42]",False,False,True,False,False,False,False
ChIJiby-gdj_zYUR-F236h2OY6Y,DIVYA PERISUR,19.303811,-99.1900529,4.1,122,1,1.0,3,"[31, 41]",False,False,True,False,False,False,False
ChIJodcjsur_zYURnwLHvC5k0Ds,LEMON BEAUTY LAB,19.3041237,-99.1914212,4.0,233,1,7.0,3,[31],False,False,True,False,False,False,False
ChIJ7Qvwvcv_zYUR0l7GBAPTemQ,BENEFIT BROWBAR DEPILACION DE CEJAS,19.3039838,-99.1918402,5.0,1666,1,7.0,3,"[31, 69, 41]",False,False,True,False,False,False,False
ChIJQcVzKlABzoURK9KPh_VysTo,STETIKRADISSONPERISUR,19.3019277,-99.1894293,4.2,11,1,10.0,3,[31],False,False,True,False,False,False,False
ChIJ364Rxt3_zYURvNRMs_m1r48,KEDMA COSMETICS PERISUR,19.3039838,-99.1918402,4.7,153,1,7.0,3,[12],False,False,True,False,False,False,False
ChIJ606H5HcAzoURRl4iQsPH76k,SPAZIO SPA BIENESTAR INTEGRAL,19.3018724,-99.1895357,4.8,49,1,10.0,3,[12],False,False,True,False,False,False,False
ChIJLfnpnZkBzoURPa45unDVThk,SERENITY BEAUTY & RELAX,19.2990975,-99.1866818,4.1,393,1,51.0,3,[12],False,False,True,False,False,False,False
ChIJnXT9gNj_zYURpFpo0bynfIg,CINEPOLIS PERISUR,19.3047183,-99.1900521,4.5,15134,1,1.0,4,[51],False,False,False,True,False,False,False
ChIJOfoq9XgAzoURDP4uLA9ONMA,CINE VILLA OLIMPICA,19.2980103,-99.1880212,4.4,272,1,19.0,4,[51],False,False,False,True,False,False,False
ChIJhXJMDgABzoURt6BT7rH4kLs,LA ISLA DE LAS RATAS,19.3042476,-99.1857877,5.0,5,1,1.0,4,[28],False,False,False,True,False,False,False
ChIJ02TQLXj_zYURmBzGnwl0Tb8,COLONIA PARQUES DEL PEDREGAL PARK,19.3007622,-99.1910448,5.0,6,1,10.0,4,[28],False,False,False,True,False,False,False
ChIJ4-3p6df_zYUR_UQY1l5TqbY,PARQUE,19.2994822,-99.1908611,4.3,22,1,10.0,4,[28],False,False,False,True,False,False,False
ChIJF1JfFAD_zYURYEKo4rkp-6o,CAMINO ARRIBA NUEVO,19.306639,-99.196617,3.8,160,1,52.0,4,[28],False,False,False,True,False,False,False
ChIJlwBdGKP_zYUR1ggV-lL0Uuw,CERRO ZACATEPETL,19.3069565,-99.1971536,4.0,5,1,7.0,4,[28],False,False,False,True,False,False,False
ChIJY296EQD_zYURG-LxyZhYX5M,BOSQUE DE TALPAN CARRERA,19.2965649,-99.1918063,4.3,30,1,10.0,4,[28],False,False,False,True,False,False,False
ChIJt661uHEAzoUR7itGfBbLHBA,BOLSILLO TITIPILES PUBLIC PARK,19.3055309,-99.1801415,3.7,226,1,53.0,4,[28],False,False,False,True,False,False,False
ChIJx-Blgnf_zYUROtLR5kaAOkM,INGRESO PRINCIPAL AL BOSQUE,19.2963214,-99.1926366,4.6,20,1,54.0,4,[28],False,False,False,True,False,False,False
ChIJEdrv2HsAzoURSgJPJ6fnPiQ,INBURSA CENTRAL,19.29735729999999,-99.1842631,3.8,117,1,42.0,5,"[1, 37, 64]",False,False,False,False,True,False,False
ChIJafIVRO0AzoURpDfswWv_R1A,HSBC MODULO PEDIATRIA,19.306114,-99.1853379,5.0,1,1,1.0,5,"[1, 64]",False,False,False,False,True,False,False
ChIJ-aMhSX84zIURre7zPBZQdFw,SCOTIABANK,19.3042394,-99.1899909,2.7,68,1,14.0,5,"[1, 64]",False,False,False,False,True,False,False
ChIJ_xfFgNj_zYURqqZBvqkqn6E,BBVA,19.3037708,-99.1908655,2.2,206,1,6.0,5,"[1, 40, 37, 64]",False,False,False,False,True,False,False
ChIJbX_n1HcAzoURf29d87pybNc,HSBC,19.3039244,-99.1909993,1.8,108,1,7.0,5,"[1, 37, 64]",False,False,False,False,True,False,False
ChIJG39Iitj_zYURqBQ2UTjSZ88,INBURSA,19.3033028,-99.1904648,3.3,30,1,7.0,5,"[1, 64]",False,False,False,False,True,False,False
ChIJ-Q55Ydj_zYURXrTqLZwgbLE,BANCO SANTANDER SMART,19.3041071,-99.191945,1.7,201,1,55.0,5,"[1, 64]",False,False,False,False,True,False,False
ChIJJQ4GP3kAzoUR5URHYEM99Pk,FIGLOSNTSA,19.2972315,-99.1854917,4.5,16,1,56.0,5,"[1, 64]",False,False,False,False,True,False,False
ChIJ5eXcxHcAzoURik4scHOrvz4,AMERICAN EXPRESS,19.3037987,-99.1888199,2.9,13,1,13.0,5,"[1, 64]",False,False,False,False,True,False,False
ChIJs2BpF60BzoURuXNJ2XC9nvc,BANORTE SUCURSAL PERISUR 7561,19.304229,-99.189854,2.0,36,1,57.0,5,"[1, 37, 64]",False,False,False,False,True,False,False
ChIJ6fKfo03_zYURX5cFAIYEE5M,"SUCURSAL BANAMEX PERISUR, CDMX",19.303754,-99.191173,1.0,13,1,1.0,5,"[1, 64]",False,False,False,False,True,False,False
ChIJrR0Jq48BzoURb-hSp5KWeqc,CITIBANAMEX PERISUR,19.302759,-99.188271,2.5,17,1,7.0,5,"[1, 64]",False,False,False,False,True,False,False
ChIJL_c8gncAzoURFUT9XKz5hNE,RODA LATINOAMERICA,19.3014963,-99.187237,3.6,339,1,10.0,5,"[1, 64]",False,False,False,False,True,False,False
ChIJJfWMZNkBzoURSj-IDeOjvGU,BANCO AZTECA,19.3037094,-99.1829426,1.5,48,1,1.0,5,"[1, 40, 37, 64]",False,False,False,False,True,False,False
ChIJ0VJIR6EBzoURYCG2jP6Cb88,BANCO DE BIENESTAR,19.2991949,-99.185777,2.6,15,1,19.0,5,"[1, 64]",False,False,False,False,True,False,False
ChIJ9yPrM3oAzoURzA3soW6nryQ,"AFORE INBURSA, SA DE C.V.",19.2986003,-99.1834035,4.1,99,1,42.0,5,"[1, 64]",False,False,False,False,True,False,False
ChIJ-clF3FwBzoURRrEIyr_CTBY,BANCO AZTECA,19.297144,-99.185625,5.0,3,1,58.0,5,"[1, 40, 37, 64]",False,False,False,False,True,False,False
ChIJRyPps3sAzoURFldFEaiWOA8,INBURSA SIEFORE SA DE CV,19.2982609,-99.1829707,3.9,361,1,42.0,5,"[1, 64]",False,False,False,False,True,False,False
ChIJx2SsYdj_zYURBDRaGMEiDtg,SANTANDER ATM,19.3036641,-99.1911041,2.3,3,1,1.0,5,"[37, 64]",False,False,False,False,True,False,False
ChIJgWOEkHYAzoUR-0OvrAgN3Ow,HSBC,19.3075559,-99.1862184,2.2,10,1,1.0,5,"[37, 64]",False,False,False,False,True,False,False
ChIJF7L6M1H_zYURlT7C69Iq4vU,SCOTIABANK PERISUR 1,19.304354,-99.18999,1.6,5,1,59.0,5,"[37, 64]",False,False,False,False,True,False,False
ChIJV2MbKnYAzoURVrHyVdStS6g,CAJERO IXE,19.304229,-99.189854,3.0,2,1,2.0,5,"[37, 64]",False,False,False,False,True,False,False
ChIJgc1ddsb_zYURafHm7X9jwDQ,SCOTIABANK PERISUR 3,19.303783,-99.19092,1.0,4,1,2.0,5,"[37, 64]",False,False,False,False,True,False,False
ChIJYwWJisT_zYUR0W0pAKfZ7sg,ATM/CAJERO BBVA,19.3041071,-99.191945,2.6,5,1,14.0,5,"[37, 64]",False,False,False,False,True,False,False
ChIJNRJk_HYBzoUR-yvgoqu3Nz8,SCOTIABANK SERVS. CORPORATIVO PORTUARIO,19.3020268,-99.1884533,1.0,1,1,60.0,5,"[37, 64]",False,False,False,False,True,False,False
ChIJfeiMb3QAzoURTsI11rAEfZ4,LABORATORIO DE CONSERVACION DEL PATRIMONIO NATURAL Y CULTURAL,19.3091822,-99.1849244,4.1,9,1,61.0,6,[32],False,False,False,False,False,True,False
ChIJ0bKrxND_zYURI2ucKpkyxgs,MONTESSORI DEL PEDREGAL,19.2998939,-99.1961467,4.0,523,1,1.0,6,[32],False,False,False,False,False,True,False
ChIJpz8bU3IAzoURLg5WVHkGwec,DIRECTORATE GENERAL OF HERITAGE UNIVERSITY,19.3095775,-99.1814931,5.0,5,1,21.0,6,"[55, 32]",False,False,False,False,False,True,False
ChIJs_bilkEAzoURccDdPV3mihk,CENDI 28 BERTHA VON GLUMER,19.3051513,-99.1851899,4.3,12,1,1.0,6,[32],False,False,False,False,False,True,False
ChIJgTs9KXEAzoUROhAlfTrD3L8,ESCUELA PRIMARIA PUBLICA REPUBLICA DE SENEGAL,19.3047828,-99.1841735,4.2,38,1,1.0,6,"[66, 32]",False,False,False,False,False,True,False
ChIJZTB61XYAzoURunAbvkhJVqk,"ESCUELA SECUNDARIA DIURNA N° 139 ""JOSE ENRIQUE RODO""",19.3043181,-99.1841666,4.6,40,1,62.0,6,"[43, 32]",False,False,False,False,False,True,False
ChIJbW9UkbsBzoURp0o40XVkNNY,ESTANCIA INFANTIL,19.3067017,-99.1842479,1.0,1,1,1.0,6,[32],False,False,False,False,False,True,False
ChIJvSCjedf_zYURaY0CfJK-l38,INSTITUTO MONTESSORI,19.300213,-99.1929723,4.2,22,1,10.0,6,[32],False,False,False,False,False,True,False
ChIJq6qqOdb_zYURUex7TWgI_U8,SISMOS MEXICO,19.2970103,-99.1911166,4.1,10,1,10.0,6,[32],False,False,False,False,False,True,False
ChIJz_pG1kgBzoURKDy5r95yG4M,COLRGIO SAGRADO CORAZON,19.2964408,-99.1896261,4.5,63,1,19.0,6,[32],False,False,False,False,False,True,False
ChIJGWa-W7X_0YURlQnN-woXphc,RESCATE AL DIA,19.2967434,-99.1870381,5.0,1,1,58.0,6,[32],False,False,False,False,False,True,False
ChIJd36Madb_zYURUmZA14vSanA,SISTEMA RUSO-ISRAELI,19.296198,-99.1901405,4.1,10,1,10.0,6,[32],False,False,False,False,False,True,False
ChIJcdU-WXQAzoURKEhRXExCrbs,CESIP,19.309698,-99.1861635,5.0,9,1,21.0,6,[55],False,False,False,False,False,True,False
ChIJLeJmpQEAzoURQVidFZjM7Qw,POSGRADO EN BIBLIOTECOLOGIA Y ESTUDIOS DE LA INFORMACION,19.3096727,-99.1851389,4.3,4,1,21.0,6,[55],False,False,False,False,False,True,False
ChIJmd9LrnMAzoURkgpVVEXRBMQ,LINKING PROGRAM WITH GRADUATES OF THE UNAM,19.3097594,-99.1820383,4.3,48,1,1.0,6,[55],False,False,False,False,False,True,False
ChIJ0bMFu9D_zYURwqpnmxy2wt8,UNIVERSIDAD LA SALLE UNIDAD SANTA TERESA,19.299217,-99.1955364,4.4,155,1,63.0,6,[55],False,False,False,False,False,True,False
ChIJn3d2DLMBzoURoYjZ_ZEzYuA,IMSS - EF - CMN SIGLO XXI,19.3026582,-99.1897483,5.0,1,1,64.0,6,[55],False,False,False,False,False,True,False
ChIJbTXk2eEBzoUREC-YU3oT6Lo,FEDERACION MEXICANA DE UNIVERSITARIAS,19.3097582,-99.1852575,4.1,9,1,21.0,6,[55],False,False,False,False,False,True,False
ChIJyYvuYXQAzoUR9EDXm5NONGY,POSGRADO DE CIENCIAS POLITICAS Y SOCIALES,19.3100245,-99.1856271,4.0,6,1,21.0,6,[55],False,False,False,False,False,True,False
ChIJz0UpY3QAzoURRUYPQY8Eaas,COORDINACION DE ESTUDIOS DE POSGRADO,19.3097899,-99.1851161,4.3,6,1,21.0,6,[55],False,False,False,False,False,True,False
ChIJT7Ey7HQAzoURt_JoOk4JVXQ,DIVISION DE ESTUDIOS DE POSGRADO DE LA FACULTAD DE ECONOMIA,19.3110217,-99.1860797,4.7,70,1,21.0,6,[55],False,False,False,False,False,True,False
ChIJrQvKHwcAzoUR-lCaURrMPic,DIRECCION GENERAL DE INCORPORACION Y REVALIDACION DE ESTUDIOS,19.3109472,-99.1849837,4.1,264,1,21.0,6,[55],False,False,False,False,False,True,False
ChIJjzZvmXQAzoURUgOk2_61B9c,UNAM COORDINACION GENERAL DE PLANEACION Y SIMPLIFICACION DE LA GESTION INSTITUCIONAL,19.3112263,-99.1848318,4.0,4,1,1.0,6,[55],False,False,False,False,False,True,False
ChIJ80yVVQABzoURuaZ0pW940lw,"DIRECCION GENERAL DE PERSONAL, DIRECCION DE SISTEMAS Y NOMINA, UNAM",19.3111099,-99.184547,4.3,66,1,1.0,6,[55],False,False,False,False,False,True,False
ChIJocorRWIBzoUR4ny6-IEbsz0,PROGRAMA DE VINCULACION CON LOS EGRESADOS Y ACADEMICOS JUBILADOS DE LA UNAM,19.3095626,-99.182289,5.0,3,1,21.0,6,[55],False,False,False,False,False,True,False
ChIJvXHBRgD_zYURdjbSZb9QtVE,TERAPIA FISICA,19.2988408,-99.195857,4.5,1038,1,65.0,6,[55],False,False,False,False,False,True,False
ChIJgVeWSjz-zYUR3XKgci6b6rk,INSTITUTE OF EDUCATIONAL LINKS,19.3022535,-99.1984719,4.5,37,1,50.0,6,[55],False,False,False,False,False,True,False
ChIJLVpO_78BzoURXkxi9DY3ZYM,TINTORERIA MAX PERISUR,19.30640679999999,-99.1873094,3.0,2,1,1.0,7,[67],False,False,False,False,False,False,True
ChIJIz4uyAAA0oURUVsjhoUqAlQ,SUZUKI PEDREGAL - GRUPO ANDRADE,19.3086401,-99.1869288,3.8,698,1,1.0,7,"[56, 30, 41]",False,False,False,False,False,False,True
ChIJP8HefNr_zYUR2Mmcwjzghxc,QUAKERSTATE IMPULSORA DE LUBRICANTES Y ADITIVOS,19.3023793,-99.1982934,5.0,3,1,66.0,7,"[30, 41]",False,False,False,False,False,False,True
ChIJK2RONHAAzoURU7StHs78ZGM,BRIDGESTONE SERVICE CENTER,19.3041949,-99.1800838,3.9,72,1,67.0,7,"[30, 41]",False,False,False,False,False,False,True
ChIJq94DBAABzoURak9mJGauCRc,TALLER GAC PERISUR,19.3091606,-99.1879849,5.0,1,1,7.0,7,[30],False,False,False,False,False,False,True
ChIJ51Xd23AAzoURCS1ozFEeJPg,SERVICIO NASCAR,19.3040057,-99.1832818,5.0,7,1,1.0,7,[30],False,False,False,False,False,False,True
ChIJq6pmC3kAzoURTY_KpOxRO2w,TALLER SUMA,19.2978508,-99.1858601,4.6,13,1,19.0,7,[30],False,False,False,False,False,False,True
ChIJNX6Ih4wBzoUR-Wii2zYYORQ,FRENOS.STORE,19.2964408,-99.1896261,4.5,63,0,68.0,7,[30],False,False,False,False,False,False,True
ChIJpVRmiHYAzoURyg1tiw3okD8,WALMART,19.3061582,-99.186997,4.0,3967,1,28.0,7,[26],False,False,False,False,False,False,True
ChIJpVRmiHYAzoURWtF6TYIRF8k,AV CENTRO COMERCIAL 190 GARAGE,19.3061582,-99.186997,4.0,2,1,28.0,7,[26],False,False,False,False,False,False,True
ChIJQ6LuiHwBzoURyJy9DOp_vGI,ESTACIONAMIENTO PUBLICO INP,19.3057826,-99.18612,3.7,15,1,1.0,7,[26],False,False,False,False,False,False,True
ChIJ81KOPGkBzoURX8z5RAZmH5s,ABPARKING,19.30915359999999,-99.1880612,5.0,1,1,1.0,7,[26],False,False,False,False,False,False,True
ChIJ7bdJSwABzoURuXuh-dJ-bPk,MOCTEZUMA - PREMEZCLADO,19.3035499,-99.1836993,4.0,45,1,1.0,7,[26],False,False,False,False,False,False,True
ChIJseh_I3EAzoURJ9T0NpaQSoQ,ESTACIONAMIENTO CREPUSCULO,19.3047158,-99.183403,2.5,13,1,1.0,7,[26],False,False,False,False,False,False,True
ChIJMR7vpfoBzoURWBwOs9-6uZg,"""EL DELFIN"" GRUPO CARSO",19.299293,-99.1843936,5.0,1,1,69.0,7,[26],False,False,False,False,False,False,True
ChIJ9eYWUnAAzoURQa3tERnmtI0,ESTACIONAMIENTO PUBLICO,19.3038891,-99.1811984,3.7,23,1,1.0,7,[26],False,False,False,False,False,False,True
ChIJtVFLQk8BzoURubpPPswBBNA,KFC & PIZZA HUT PARKING LOT,19.3040603,-99.180427,2.5,2,1,1.0,7,[26],False,False,False,False,False,False,True
ChIJZ321stMBzoUR16nTPU-RsJM,ESTACIONAMIENTO 3 ZONA CULTURAL,19.3118132,-99.1841164,4.7,51,1,61.0,7,[26],False,False,False,False,False,False,True
ChIJqUtcZLUBzoUReG-bhPDE7RI,ESTACIONAMIENTO CONTROLADO E-3 C.C.U,19.3119473,-99.1841434,3.5,2,1,21.0,7,[26],False,False,False,False,False,False,True
ChIJJ22X8Tf_zYURsXZfsPY7doU,REAL DEL PEDREGAL EVENTOS SOCIALES,19.29695479999999,-99.1936013,4.8,536,1,70.0,7,[26],False,False,False,False,False,False,True
ChIJJ5T8Vdb_zYUR-kPs0q_vKvs,"ACCESO A UNIDAD DE SEMINARIOS ""DR. IGNACIO CHAVEZ""",19.3112468,-99.1958767,5.0,2,1,7.0,7,[26],False,False,False,False,False,False,True
ChIJL6ikKAD_zYUR3_wM0GuBYVQ,PARQUE GRANADA 71,19.3022535,-99.1984719,4.0,4,1,50.0,7,[26],False,False,False,False,False,False,True
ChIJ2Yr6yHYAzoURzbXplLUwwqY,RICOS TACOS,19.3053874,-99.1849248,4.5,10,0,1.0,1,"[45, 11]",True,False,False,False,False,False,False
ChIJqZzKLQABzoURlWGTc3M2NJk,DULCES LUPITA,19.30483,-99.1840305,4.2,38,1,1.0,1,"[45, 11]",True,False,False,False,False,False,False
ChIJ36DiYQwBzoURCiPiuRq_MLw,TACOS DE GUISADO SELVA,19.3045296,-99.1842196,5.0,17,1,1.0,1,"[45, 11]",True,False,False,False,False,False,False
ChIJs_DmixwBzoURA3I17HW-V4A,RESTAURANTE LA SELVA,19.3043542,-99.1835848,4.2,128,1,1.0,1,"[45, 11]",True,False,False,False,False,False,False
ChIJ0Xu5IE8BzoUR4rBw8GrH4SE,LAS DONITAS,19.3035718,-99.1832132,3.5,44,1,71.0,1,"[17, 45, 11]",True,False,False,False,False,False,False
ChIJabEM-Pj_zYURpHaCPZxcUso,CAFETERIA UNIVERSUM,19.3116594,-99.1801735,4.0,229,1,21.0,1,"[18, 41, 11]",True,False,False,False,False,False,False
ChIJ9Qjo7nIAzoURKrACNdzoAyk,RESTAURANTE UNIVERSUM,19.3111331,-99.1803856,4.6,1857,1,21.0,1,"[45, 18, 41, 11]",True,False,False,False,False,False,False
ChIJuz05FQABzoURQXCFw1QKkYY,SALON JOSE PABLO MONCAYO “CAFETERIA DE LA FILARMONICA”,19.3027599,-99.1789713,4.7,10,1,36.0,1,"[18, 41, 11]",True,False,False,False,False,False,False
ChIJDXAlaQsAzoURwmhk9GxCb7Q,NUBE SIETE,19.314956,-99.1850214,4.1,1842,1,21.0,1,"[45, 18, 41, 11]",True,False,False,False,False,False,False
ChIJT17Ry6ABzoURGAbd-IWvCMc,ROJO SATURNO CAFETERIA Y CACAOTERIA DE ESPECIALIDAD,19.3028751,-99.1786265,4.4,10,0,36.0,1,"[18, 41, 11]",True,False,False,False,False,False,False
ChIJMVFLTwABzoUR6Zr8usoKD_0,LOS CANTARITOS DEL PEDREGAL,19.3038107,-99.1787244,4.4,14,1,25.0,1,"[25, 45, 11]",True,False,False,False,False,False,False
ChIJB6byRCQBzoURMi54i_JkXuA,KRISPY KREME EN OXXO,19.3036437,-99.1797951,3.8,305,1,25.0,1,"[70, 41, 11]",True,False,False,False,False,False,False
ChIJoV7-NEoBzoUR1Ds515Wz8jg,EX PAN MAITE,19.3055808,-99.1780576,4.5,17,1,53.0,1,"[70, 41, 11]",True,False,False,False,False,False,False
ChIJwyy31kMBzoURwHH2ebmLgq0,ABARROTES CRUZ,19.3020238,-99.1781994,4.5,9,1,36.0,2,"[39, 11, 41]",False,True,False,False,False,False,False
ChIJ7Zr67e0BzoURwC_50t8AgAk,ADOLFO DOMINGUEZ,19.3054923,-99.187057,4.4,59,1,1.0,2,"[16, 41]",False,True,False,False,False,False,False
ChIJmSTTBj0BzoURrccnvtmwIsw,SOFI ACCOUNT,19.30682359999999,-99.1823249,3.6,11,1,72.0,2,"[16, 41]",False,True,False,False,False,False,False
ChIJZ50LvGH_zYUR5xPwuep6vFs,H&M,19.3032466,-99.1894693,4.3,388,1,73.0,2,"[16, 41]",False,True,False,False,False,False,False
ChIJxRLwZgABzoUR9Y0IHwJSsdM,JGG,19.302866,-99.1798791,4.9,114,1,69.0,7,"[47, 41]",False,False,False,False,False,False,True
ChIJVVVVJQAAzoURJE10L_EifUk,LIBRERIA UNIVERSUM,19.3117555,-99.1798867,4.5,71,0,,2,"[46, 41]",False,True,False,False,False,False,False
ChIJWQp9wEkBzoUR5SEmwi7AxTc,LIBRERIA JULIO TORRI,19.3137028,-99.1850779,4.2,22,1,21.0,2,"[46, 41]",False,True,False,False,False,False,False
ChIJC33YAdgBzoURNixdlQ-ZmOk,LIBRERIA ENAH,19.3018596,-99.17962,4.8,116,1,69.0,2,"[46, 41]",False,True,False,False,False,False,False
ChIJJ4-ZgGgAzoURwn7wgjplUqU,FARMACIAS DEL AHORRO VILLA PANAMERICANA,19.3037445,-99.1791873,3.1,120,1,74.0,3,"[7, 50, 41, 42]",False,False,True,False,False,False,False
ChIJRxOdH24AzoURVPc9EfaS_Q0,SADHANA SPA,19.3060708,-99.1787065,4.7,40,0,25.0,3,"[12, 41, 31]",False,False,True,False,False,False,False
ChIJGbsDEB4BzoURWaYEgCzWXHI,BLACK KITTY,19.3043588,-99.179451,5.0,49,1,25.0,3,[31],False,False,True,False,False,False,False
ChIJy98OdqQBzoURD5wUQudlyao,LIPOMARCACION MANUAL LMM,19.306003,-99.178683,5.0,2,0,75.0,3,[31],False,False,True,False,False,False,False
ChIJLWGYFfYBzoUR6-v6RL4qasY,ESTETICA ANDREA,19.3050097,-99.1781663,4.8,36,1,25.0,3,[31],False,False,True,False,False,False,False
ChIJ5wE9eIABzoURVpDHCQ8AMww,OLAYA STUDIO PEDREGAL,19.30285019999999,-99.1785855,4.3,13,1,76.0,3,[31],False,False,True,False,False,False,False
ChIJuY_1RQsAzoURZxj6O6WPzrU,"UNIDAD DE CINES: JOSE REVUELTAS, JULIO BRACHO Y CARLOS MONSIVAIS",19.3137302,-99.1853638,4.7,636,1,21.0,4,[51],False,False,False,True,False,False,False
ChIJ7YmAXgsAzoURsksvz9phPME,FILMOTECA UNAM - SALA MIGUEL COVARRUBIAS,19.3131858,-99.1852469,5.0,9,1,77.0,4,[51],False,False,False,True,False,False,False
ChIJKWXzOXMAzoURuLkmc_qvirg,"COORDINACION DE EVALUACION, INNOVACION Y DESARROLLO EDUCATIVOS CEIDE - UNAM",19.3114341,-99.1824326,4.9,10,1,1.0,6,"[55, 32]",False,False,False,False,False,True,False
ChIJa-D6p24AzoURXuMq8R4-llc,ESCUELA PRIMARIA RUMANIA,19.3061732,-99.1779253,4.3,11,1,78.0,6,"[66, 32]",False,False,False,False,False,True,False
ChIJQZEPV2UAzoUR4EvDKtMix3c,"ESTANCIA INFANTIL ""DONAJI"".",19.3020197,-99.1782958,4.0,4,1,36.0,6,[32],False,False,False,False,False,True,False
ChIJISsAEHAAzoURgDNxfKC8T-M,NATIONAL SCHOOL OF ANTHROPOLOGY AND HISTORY,19.3023389,-99.1797593,4.7,562,1,69.0,6,[55],False,False,False,False,False,True,False
ChIJrQvKHwcAzoURHR4FY4UF-zM,"DIRECCION GENERAL DE CONTROL PRESUPUESTAL E INFORMATICA, LIC. MARTHA. / DEPTO. RECURSOS HUMANOS.",19.3097491,-99.1814548,5.0,2,1,79.0,6,[55],False,False,False,False,False,True,False
ChIJOeT5xwMAzoURYOPwJ3tC2zA,PROGRAMA UNIVERSITATIO DE BIOETICA,19.3119673,-99.1825399,5.0,9,1,21.0,6,[55],False,False,False,False,False,True,False
ChIJ87DcQgsAzoUR20KqgwsgjVE,DIRECCION GENERAL DE MUSICA,19.314245,-99.184531,5.0,2,1,21.0,6,[55],False,False,False,False,False,True,False
ChIJT5lKtgMAzoURJm9zEHgLJeo,HUMANINDEX: SISTEMA DE INFORMACION ACADEMICA,19.3146517,-99.1817795,5.0,2,1,61.0,6,[55],False,False,False,False,False,True,False
ChIJXfFQPnMAzoURQR1wqiAqPWA,"CENTRO DE INVESTIGACION EN POLITICAS, POBLACION Y SALUD",19.3120869,-99.1825262,4.8,18,1,22.0,6,[55],False,False,False,False,False,True,False
ChIJy4X3NysBzoURedHnUm7Fejw,EDIFICIO PRINCIPAL,19.3025352,-99.1798773,5.0,1,1,69.0,6,[55],False,False,False,False,False,True,False
ChIJ0d8QSwABzoURwF6G9lF29MY,LABORATORIO DE LINGUISTICA - ENAH,19.3019746,-99.1797946,5.0,2,1,69.0,6,[55],False,False,False,False,False,True,False
ChIJqY_oGQcBzoURcrSdLJRfXnM,MEDIOS AUDIOVISUALES,19.3015888,-99.1795512,4.8,116,1,69.0,6,[55],False,False,False,False,False,True,False
ChIJ312LfgsAzoURhOrmoQwyX4A,INSTITUTO DE INVESTIGACIONES SOBRE LA UNIVERSIDAD Y LA EDUCACION (IISUE),19.3157568,-99.1845952,4.6,56,1,21.0,6,[55],False,False,False,False,False,True,False
ChIJI86AInsBzoUR4huIXL8vzv0,PLANCHADURIA ISABEL,19.3055512,-99.1797737,5.0,2,1,25.0,7,[67],False,False,False,False,False,False,True
ChIJnRETKHAAzoURKKMrHCI8g1A,TINTORERIA MAX,19.30376249999999,-99.1789095,4.3,6,1,,7,[67],False,False,False,False,False,False,True
ChIJw11XCz4BzoURWKvsvAtGuZ4,SERVICIO 2,19.3039353,-99.1794605,4.3,44,1,53.0,7,[30],False,False,False,False,False,False,True
ChIJ8wop_HsAzoURuh6_Ox5SPpY,TERRAZA VERDE,19.2957777,-99.1839956,4.1,1163,0,42.0,1,"[45, 11]",True,False,False,False,False,False,False
ChIJf7Qt9XsAzoURDgjWdFiCsiU,SUBWAY,19.2981442,-99.1814257,3.5,109,1,42.0,1,"[45, 11]",True,False,False,False,False,False,False
ChIJM2QGtHsAzoURJdQywb7OIkg,SANBORNS,19.2979719,-99.1818444,4.3,3360,1,42.0,1,"[24, 7, 70, 25, 45, 11, 41, 42]",True,False,False,False,False,False,False
ChIJ1cOFBXsAzoURUtsio5tfqNA,BENEDETTI'S PIZZA CUICUILCO,19.2978907,-99.1814483,3.9,291,0,80.0,1,"[17, 45, 11]",True,False,False,False,False,False,False
ChIJnZwtd3sAzoURtNFHX1UqWtc,SUSHI ZEN,19.2977963,-99.1811721,4.3,277,1,56.0,1,"[45, 11]",True,False,False,False,False,False,False
ChIJKfDb8m8AzoURxrzMNZ1QzCk,MAS QUE PIZZA,19.3020766,-99.1774829,4.0,2,0,36.0,1,"[45, 11]",True,False,False,False,False,False,False
ChIJx99VaWUAzoURmdgLC15EzmY,BARBACOA LOS BORREGUITOS,19.3004718,-99.1774264,4.6,10,1,36.0,1,"[45, 11]",True,False,False,False,False,False,False
ChIJqbE3c2UAzoURiyjFnWWq0pg,TACOS LOS GEMELOS,19.3002233,-99.1764741,4.5,1749,1,36.0,1,"[45, 11]",True,False,False,False,False,False,False
ChIJUzUy_mAAzoURd7kEx7sULLU,LOS 3 CHINELOS,19.2949789,-99.180622,4.3,4185,1,56.0,1,"[45, 11]",True,False,False,False,False,False,False
ChIJfcEIUWMAzoURbF84jRBlgb8,LITTLE CAESAR'S,19.2949818,-99.1783798,4.0,3100,1,56.0,1,"[45, 11]",True,False,False,False,False,False,False
ChIJPbQaTGMAzoURybA-XHoE6IY,LA CASITA COCINA ECONOMICA,19.29458,-99.178555,4.6,83,1,56.0,1,"[45, 11]",True,False,False,False,False,False,False
ChIJMczOzWUAzoURt3B2DJOIwcY,EL CAMARONCITO,19.2990749,-99.1741518,4.4,1831,1,36.0,1,"[45, 11]",True,False,False,False,False,False,False
ChIJm-dewXwAzoURkx7mCp-bkrY,DOMINO'S,19.293812,-99.179922,3.7,927,1,42.0,1,"[14, 17, 45, 11]",True,False,False,False,False,False,False
ChIJo_ItSm8AzoURNKJOXofRNUw,LA MANSION PERIFERICO SUR,19.3031808,-99.1739492,4.4,824,1,25.0,1,"[45, 11]",True,False,False,False,False,False,False
ChIJAcILeHwAzoURp-6kQBGmFms,PIANTAO,19.2967328,-99.1818914,4.6,4406,1,42.0,1,"[45, 11]",True,False,False,False,False,False,False
ChIJSTaqpXwAzoURvtHLRV0wsSA,TACO EXPRESS,19.2950942,-99.1796334,4.0,4628,1,42.0,1,"[45, 11]",True,False,False,False,False,False,False
ChIJq2rz65sBzoURcvvOVAJSCcA,BARBACOA MILA DE VILLA DE TEZONTEPEC HGO.,19.3022693,-99.1794371,4.7,3,1,69.0,1,"[45, 11]",True,False,False,False,False,False,False
ChIJa2CJBnAAzoURCbIYpG1SlyU,"QUESADILLAS ""LUDY""",19.3017863,-99.1792651,5.0,5,1,69.0,1,"[45, 11]",True,False,False,False,False,False,False
ChIJpY9MG3AAzoURLx-hELaUv7A,CAMARONES CAFETERIA,19.3022071,-99.1792381,4.8,9,1,36.0,1,"[45, 11]",True,False,False,False,False,False,False
ChIJJ7uvOKcBzoUR8ozM-YRFJTM,SUPER TORTAS CALIENTES,19.3037034,-99.1802124,2.2,6,1,53.0,1,"[45, 11]",True,False,False,False,False,False,False
ChIJjbKxM3oAzoUR_53dJpSe-Ko,PASTES KIKOS,19.2985549,-99.1834705,4.0,9,1,42.0,1,"[45, 11]",True,False,False,False,False,False,False
ChIJ1ZzJQgABzoURkaUAL3m7ZSI,BARBACOA Y CONSOME DE BORREGO,19.3030044,-99.179229,5.0,1,1,36.0,1,"[45, 11]",True,False,False,False,False,False,False
ChIJOyeJbUQBzoUR1Anwkm_MGJQ,LA PATRONA,19.3040527,-99.1800414,4.0,46,1,25.0,1,"[45, 11]",True,False,False,False,False,False,False
ChIJp75KNHAAzoURXg1DWb0_-SI,"TACOS ""EL PERI""",19.3041012,-99.1800635,4.2,1288,1,25.0,1,"[45, 11]",True,False,False,False,False,False,False
ChIJKZ6ns3sAzoURXlRGsWuF5tI,TRUFFY,19.2981755,-99.1825182,4.1,9,1,42.0,1,"[45, 11]",True,False,False,False,False,False,False
ChIJu70XLgABzoUR-FS3GT5--d4,MANANTIAL,19.2981371,-99.1815197,5.0,4,1,42.0,1,"[45, 11]",True,False,False,False,False,False,False
ChIJY_zLgygBzoUR---y1cZzQc4,LUCKY LUCIANO HAPPY FAMILY & FRIENDS WORLD,19.3037445,-99.1791873,5.0,1,0,74.0,1,"[45, 11]",True,False,False,False,False,False,False
ChIJM6SFhcEBzoURaG7tgPgnnZo,COCINA MILA,19.3023002,-99.1783927,4.5,25,1,36.0,1,"[45, 11]",True,False,False,False,False,False,False
ChIJ08RI-m8AzoURBXFf5RFopps,COCINA HILA,19.3020033,-99.1782762,4.5,9,1,36.0,1,"[45, 11]",True,False,False,False,False,False,False
ChIJX32UgesBzoURlc7iZXYH4uM,BALANCE EXPRES G&P,19.2988726,-99.1792846,4.4,739,0,81.0,1,"[45, 11]",True,False,False,False,False,False,False
ChIJk1D3BXsAzoURokcHLRnkTPo,ASADERO BEEF CUICUILCO,19.2977608,-99.1813474,3.3,168,1,42.0,1,"[45, 11]",True,False,False,False,False,False,False
ChIJbxciXjoBzoURrnd3CH7yVGI,PERROS Y BURROS CUICUILCO,19.29789269999999,-99.1808028,4.8,3575,1,82.0,1,"[25, 45, 11]",True,False,False,False,False,False,False
ChIJM3AiBnsAzoURPJnsxQs8uq8,ALMACEN PIANTAO,19.2977184,-99.1813419,4.3,206,1,42.0,1,"[45, 11]",True,False,False,False,False,False,False
ChIJiwdyeHwAzoURA3Z0t3fWAH4,DARUMA,19.29783579999999,-99.180841,4.3,1069,1,42.0,1,"[45, 11]",True,False,False,False,False,False,False
ChIJoZt095gBzoURBfSiHQYtV4g,YELLOW GRILL CUICUILCO,19.2977308,-99.181183,3.6,26,1,42.0,1,"[45, 11]",True,False,False,False,False,False,False
ChIJ_2arky0BzoURXofp7yWRH5o,BRASA DO BRASILIA,19.2975801,-99.1817587,4.8,575,1,83.0,1,"[45, 11]",True,False,False,False,False,False,False
ChIJ5cOaQPYBzoURo02SPP-RUcw,STARBUCKS CUICUILCO PLAZA,19.2974497,-99.1813604,4.3,1091,1,84.0,1,"[18, 41, 45, 11]",True,False,False,False,False,False,False
ChIJJWYSNyMBzoUR5Cw5Ouxo8Ro,CASA CHECO,19.2970377,-99.1823669,4.7,60,1,85.0,1,"[45, 11]",True,False,False,False,False,False,False
ChIJLYmKYiMBzoURHPItcOsDIuo,DOMINO'S KIDZANIA CD. DE LOS NINOS CUICUILCO,19.2971956,-99.1808377,4.5,6685,1,86.0,1,"[14, 17, 45, 11]",True,False,False,False,False,False,False
ChIJd-7ZXQABzoUR25EhWTxAhKo,MARISCOS EL GORDO,19.3005318,-99.17755470000002,5.0,1,1,36.0,1,"[45, 11]",True,False,False,False,False,False,False
ChIJD7c0MaEBzoURmElGhRWfCdM,LOS PLACERES DEL SANCHO... PANZA,19.300478,-99.1774801,5.0,1,0,36.0,1,"[45, 11]",True,False,False,False,False,False,False
ChIJlx-TDnIBzoURYxEMoJRY2mw,LAS HAMBURGUESAS AL CARBON,19.3055501,-99.179725,4.9,17,0,25.0,1,"[45, 11]",True,False,False,False,False,False,False
ChIJu61T8coBzoURD_G5OAswofU,EL RINCON DE LOS CALDOS,19.2993937,-99.1777378,4.8,38,1,36.0,1,"[45, 11]",True,False,False,False,False,False,False
ChIJcf8qFXkAzoURFrKbjDjCWOg,FINCA SANTA VERACRUZ,19.296546,-99.1856961,4.1,23,1,19.0,1,"[18, 41, 11]",True,False,False,False,False,False,False
ChIJHR3OVmMAzoUR7v9ayjKT0IQ,RETRO CAFE,19.2952933,-99.1772515,4.2,29,1,87.0,1,"[18, 11]",True,False,False,False,False,False,False
ChIJe8kkm2MAzoUR9wUaFitbHl4,CALLEQATRO CAFETERIA,19.2952171,-99.1769002,4.3,1392,1,88.0,1,"[18, 41, 11]",True,False,False,False,False,False,False
ChIJvW1PnHkAzoURG-Yvl6wPVUo,CAFE PUNTA DEL CIELO,19.2978788,-99.1811961,4.4,1254,1,42.0,1,"[18, 41, 11]",True,False,False,False,False,False,False
ChIJHXqfWAABzoURvVnutNZzXgM,DELICIAS ANDELIN,19.3016452,-99.178197,5.0,1,1,36.0,1,"[18, 41, 11]",True,False,False,False,False,False,False
ChIJW7AeJkkBzoURefO-XxuGCBs,DAI’S COFFEE - CAFETERIA Y FUENTE DE SODAS,19.3005201,-99.1774177,3.7,6,1,36.0,1,"[18, 11]",True,False,False,False,False,False,False
ChIJXwd3jG8AzoURrhNldq4kdQc,MOSAICO CAFE,19.3020353,-99.177234,4.5,48,0,36.0,1,"[18, 41, 11]",True,False,False,False,False,False,False
ChIJb7OWGM8BzoUR6xKFgq7tc-g,DAI’S COFFEE,19.3015553,-99.1771076,4.6,9,1,89.0,1,"[18, 41, 11]",True,False,False,False,False,False,False
ChIJhRE9BgABzoURrrRWita5MFg,CAFE CHAMOY,19.29992189999999,-99.1771661,4.5,3,1,36.0,1,"[18, 41, 11]",True,False,False,False,False,False,False
ChIJ2wz1SQABzoUR25_vtvYMBQ0,CHIDO,19.2998296,-99.1768647,4.5,415,1,36.0,1,"[18, 41, 11]",True,False,False,False,False,False,False
ChIJPa29BQABzoURfdUR99NptyA,PANADERIA LECAROZ,19.2962832,-99.1806429,4.8,1345,1,88.0,1,"[18, 41, 11]",True,False,False,False,False,False,False
ChIJA6MaTgQBzoUR_0KiNxSOfEo,MAISON KAYSER GRUPO SALINAS,19.2965484,-99.1857068,3.6,32,1,19.0,1,"[45, 70, 18, 41, 11]",True,False,False,False,False,False,False
ChIJE_ZWaAABzoURZ4flNOs9FQk,HOUND DOG AMERICAN DINER,19.295584,-99.1800448,4.8,25,1,88.0,1,"[18, 41, 11]",True,False,False,False,False,False,False
ChIJeWIZM18AzoUR05AKbSmUpRE,THE CAFE FACTORY S.A. DE C.V.,19.2954662,-99.1804418,4.3,848,0,90.0,1,"[18, 41, 11]",True,False,False,False,False,False,False
ChIJpQhJfnwAzoURMvZXZ0sO944,ENSALADAS LUNA'DO,19.2951401,-99.1817842,3.0,2,0,42.0,1,"[18, 41, 45, 11]",True,False,False,False,False,False,False
ChIJ1U08WQABzoURJdJsaJGpjX4,ELOTERIA DEL BARRIO,19.2950852,-99.1820643,4.1,93,1,56.0,1,"[18, 41, 11]",True,False,False,False,False,False,False
ChIJUSVTNYIBzoURDBwnP1dkV80,SWEET HOME 547 SAN FERNANDO,19.2954097,-99.1793293,5.0,9,1,91.0,1,"[18, 41, 11]",True,False,False,False,False,False,False
ChIJJ2JErHwAzoURsKk3pOeSe_A,TLALPENAS,19.2953981,-99.1793155,5.0,1,1,92.0,1,"[18, 41, 11]",True,False,False,False,False,False,False
ChIJrUPho3wAzoURS5tBHNFoFCQ,50ˋS CULT,19.2951187,-99.179883,4.2,5,1,42.0,1,"[18, 41, 11]",True,False,False,False,False,False,False
ChIJLyE8W3cBzoUR6F2-BWjylxY,COTE CAFE,19.2946722,-99.1820424,5.0,10,1,56.0,1,"[18, 41, 11]",True,False,False,False,False,False,False
ChIJeUy7W3gAzoURrReYK21hJk0,CAFE 43,19.2954394,-99.1856033,4.2,357,1,93.0,1,"[18, 41, 11]",True,False,False,False,False,False,False
ChIJPzWQbAABzoURGDNL1d_yM2E,NUTRISSSTE VELATORIOS,19.2954808,-99.1784646,4.2,36,1,88.0,1,"[18, 41, 11]",True,False,False,False,False,False,False
ChIJO7bHI0wBzoURji60MJfWyyg,CAFE EXPRESS,19.2950353,-99.1789495,4.8,17,1,56.0,1,"[18, 41, 11]",True,False,False,False,False,False,False
ChIJz44o-4UBzoUR8j8g2Pj-YtE,CAFYGO,19.2950353,-99.1789495,5.0,7,1,42.0,1,"[18, 11, 41]",True,False,False,False,False,False,False
ChIJ2b91UQABzoURF4NdEER-_-A,EL MAL DEL PUERCO,19.2950438,-99.1785493,4.9,10,1,94.0,1,"[45, 18, 11, 41]",True,False,False,False,False,False,False
ChIJb4qxEXABzoURWcwGr1sASBs,DULCE CHIA CAFE & GALERIA,19.2998416,-99.1746139,4.5,31,1,36.0,1,"[18, 11, 41]",True,False,False,False,False,False,False
ChIJZSiysCABzoURZP5_UVBU5gs,SNACKS Y POSTRES LA PASION DEL SABOR,19.3001015,-99.1743007,5.0,2,1,36.0,1,"[18, 11, 41]",True,False,False,False,False,False,False
ChIJHZ9N-BkBzoUR3PPVJWFZXJ4,LAS CREPAS DE JOOY,19.3024289,-99.1739973,4.6,36,1,95.0,1,"[18, 11]",True,False,False,False,False,False,False
ChIJB8vDIkgBzoUR6B4oaV0_fG4,PICKUP COFFEE - TLALPAN,19.2937967,-99.179142,3.5,59,1,96.0,1,"[18, 11, 41]",True,False,False,False,False,False,False
ChIJ4xI1ReUBzoURyEIkUnrU6_s,CAFE PARA TRES,19.3003285,-99.1733318,4.3,18,1,36.0,1,"[18, 11, 41]",True,False,False,False,False,False,False
ChIJv1hpiBEBzoURMDqDBRX6_LE,GREEN CLUB HEALTHY LIFE,19.2929194,-99.1819621,4.4,27,1,97.0,1,"[18, 11, 41]",True,False,False,False,False,False,False
ChIJARvabAABzoUR_LWq7wpE2P8,NAT FAST FOOD,19.2935823,-99.1786204,4.6,110,1,56.0,1,"[18, 11, 41]",True,False,False,False,False,False,False
ChIJZ_SCOQABzoURLPK5ilpOgUs,"NO RECOMIENDO TRABAJAR HAY, LA VIEJA ES MALA PAGA Y SE APROVECHA DE QUE SON NUEVOS PARA NO PAGARLES SI NO DURAN...",19.2931758,-99.1793856,4.5,363,1,98.0,1,"[18, 11, 41]",True,False,False,False,False,False,False
ChIJoyWeX6ABzoURgyU_4U_YLkI,BAKEKISS VENTA DE FABRICA,19.2929523,-99.1796415,4.7,14,1,98.0,1,"[18, 11, 41]",True,False,False,False,False,False,False
ChIJbydBsHsAzoURCH6_wllpnhU,SANBORNS,19.2977881,-99.1823141,4.2,1685,1,42.0,1,"[24, 25, 41]",True,False,False,False,False,False,False
ChIJc7n8vJkBzoURKu0OnwceoNQ,PERROS Y BURROS,19.2981371,-99.1815197,4.9,71,1,42.0,1,[25],True,False,False,False,False,False,False
ChIJNUDxYFUBzoURmKmWg4kJP4Q,STARPULKS OLLIN,19.3011405,-99.1776279,4.5,3,0,36.0,1,[25],True,False,False,False,False,False,False
ChIJv8sEawABzoURrYNQih2_X_k,NECR∅WARE,19.29955349999999,-99.1777975,4.5,21,1,36.0,1,[25],True,False,False,False,False,False,False
ChIJN-IF7dQBzoUR56AyZdbAST0,CHOPE CARRASCO,19.3025151,-99.1760317,4.3,30,1,36.0,1,[25],True,False,False,False,False,False,False
ChIJmW3C1FQBzoURq0hOkt3OlQg,"DEPOSITO ""LOS CONEJOS""",19.3020156,-99.175767,4.0,4,1,36.0,1,"[25, 45, 11]",True,False,False,False,False,False,False
ChIJPVGnIAoBzoURZW8DEAKPUeI,LA PATRONA,19.2948577,-99.1820866,4.3,126,1,99.0,1,[25],True,False,False,False,False,False,False
ChIJpUlJCAABzoUREIHCXawpJU8,"TACOS DE GUISADO ""BICHOTACO""",19.2948518,-99.1819018,5.0,2,1,56.0,1,[25],True,False,False,False,False,False,False
ChIJ1QMOhB8BzoURITVCC7elbSo,LAS ABUELAS PUB,19.2995908,-99.1752385,3.3,9,1,100.0,1,"[25, 45, 11]",True,False,False,False,False,False,False
ChIJsSZVAQABzoURTYUf-vHGQP0,LA CANIJA,19.2945982,-99.1830865,5.0,2,1,98.0,1,"[25, 45, 11]",True,False,False,False,False,False,False
ChIJF8e_EjgBzoURssQfow1jJr4,LA NECIA RESTAURANTE & CANTINA SOCIAL,19.2950899,-99.1787543,3.9,105,0,56.0,1,"[25, 45, 11]",True,False,False,False,False,False,False
ChIJGVDGOQABzoURTsmm7_305LM,TERRAZA SAN FERNANDO SALON,19.2950438,-99.1785493,4.4,788,1,56.0,1,[25],True,False,False,False,False,False,False
ChIJTZYvUwABzoURjlsSLhv0eXo,CULPABLE EXPRESS,19.300105,-99.1737802,5.0,1,1,101.0,1,"[45, 25, 11]",True,False,False,False,False,False,False
ChIJW4cgdAABzoURasPeHetW8eg,CASA DEL DIABETICO,19.2989221,-99.1735753,4.7,371,1,36.0,1,[25],True,False,False,False,False,False,False
ChIJOeWYaNYBzoURug6hQCWVJYs,EL BURRITO PLAYERO,19.2931739,-99.1793968,4.8,36,1,98.0,1,"[25, 45, 11]",True,False,False,False,False,False,False
ChIJJR3C5EoBzoURRH-OhdCa-4I,INSTINCT COCKTAIL,19.3074685,-99.1753592,4.4,5,0,102.0,1,[25],True,False,False,False,False,False,False
ChIJC7wuwmUAzoURzBVdN3n4_cc,PASTELERIA Y PANADERIA LECAROZ CARRASCO,19.30009399999999,-99.174306,3.9,634,1,36.0,1,"[70, 41, 11]",True,False,False,False,False,False,False
ChIJldL0d2MAzoURb0MT-WPAgF8,PANADERIA PANMEX,19.2949179,-99.1760164,4.2,783,1,56.0,1,"[70, 41, 11]",True,False,False,False,False,False,False
ChIJ9xJSAXsAzoURmO2KGB_SQCA,PASTES KIKOS,19.2978414,-99.1814955,4.3,191,1,88.0,1,"[70, 41, 11]",True,False,False,False,False,False,False
ChIJadcEZOoBzoURkBd8zjzd9O0,EL CHURRO ARABE,19.3003732,-99.1771112,3.7,3,1,36.0,1,"[70, 41, 11]",True,False,False,False,False,False,False
ChIJKUtp7IoBzoURLasCV7goAxs,PASTELERIA ADIN,19.299856,-99.1768947,4.0,1,0,36.0,1,"[70, 41, 11]",True,False,False,False,False,False,False
ChIJDWv9ImEBzoURipwcaP1HaUw,PASTELES 3 LECHES LA TRUFA DORADA,19.2945614,-99.1818969,4.8,33,1,103.0,1,"[70, 41, 11]",True,False,False,False,False,False,False
ChIJqfxkvmUAzoURF9q2K7Jz-gM,PASTELERIA SAN PEDRO,19.3000764,-99.1748025,3.3,18,1,36.0,1,"[70, 41, 11]",True,False,False,False,False,False,False
ChIJgXS7GugBzoURvz3UOWF4-ps,BONPANE,19.2940523,-99.1817033,4.1,1160,1,104.0,1,"[70, 11, 41]",True,False,False,False,False,False,False
ChIJJUd3MwABzoURT8hGksd5dxM,PANADERIA TENTACIONES,19.2991617,-99.1746172,5.0,4,1,36.0,1,"[70, 11, 41]",True,False,False,False,False,False,False
ChIJW4mpH_QBzoURXu7ZiVbu4sA,RODOLTTE,19.2949473,-99.17818160000002,4.4,90,1,56.0,1,"[70, 11, 41]",True,False,False,False,False,False,False
ChIJlWY0wmUAzoURSwFDlR3igd0,EL HORNO,19.300157,-99.1742783,4.2,32,1,36.0,1,"[70, 11, 41]",True,False,False,False,False,False,False
ChIJ9dAJzHwAzoUR0XcXSVoOoW4,OFFICEMAX TLALPAN,19.2937472,-99.1790768,4.0,4314,1,56.0,1,"[70, 11, 41]",True,False,False,False,False,False,False
ChIJzfW2W3wAzoURpv_KUuaAItM,PASTES Y PASTELES LA D'LIZIA,19.2934479,-99.1820463,4.3,79,1,105.0,1,"[70, 11, 41]",True,False,False,False,False,False,False
ChIJnfYhEVcAzoUR_-P0lXl_lDM,CHURRERIA Y ALTA REPOSTERIA,19.2935406,-99.1807829,4.3,3,1,98.0,1,"[70, 11, 41]",True,False,False,False,False,False,False
ChIJ8Y_1PgABzoURr3k3XKjiUbw,PAN AUDAZ,19.3062457,-99.1752529,4.4,5,1,106.0,1,"[70, 11, 41]",True,False,False,False,False,False,False
ChIJc4juVfQBzoURA-GvuSM0RNY,TIENDAS NETO,19.3004775,-99.1770886,4.0,10,1,36.0,2,"[10, 19, 41, 11]",False,True,False,False,False,False,False
ChIJj6vucncBzoURT46PVEzZJtQ,CHEDRAUI SUPERCITO ISIDRO FABELA,19.2999291,-99.1763405,3.8,194,1,36.0,2,"[10, 19, 41, 11]",False,True,False,False,False,False,False
ChIJU69b_UgBzoURd15FkpsBtvc,TIENDAS NETO,19.2963837,-99.1857251,5.0,2,1,56.0,2,"[10, 19, 41, 11]",False,True,False,False,False,False,False
ChIJOaiUSEUBzoURqCKkKaU_OU8,"BODEGA AURRERA EXPRESS, KENNEDY",19.299492,-99.1747759,3.6,1169,1,36.0,2,"[10, 19, 41, 11]",False,True,False,False,False,False,False
ChIJTTH-UGMAzoURlbvwH6H2984,OXXO SAN FERNANDO MEX,19.2949473,-99.17818160000002,4.1,21,1,56.0,2,"[39, 58, 64, 11, 41]",False,True,False,False,False,False,False
ChIJCW0ti3wAzoURQfjOMpJ7isM,OXXO DEGOLLADO MEX,19.293679,-99.1797484,2.0,22,1,56.0,2,"[39, 5, 58, 64, 11, 41]",False,True,False,False,False,False,False
ChIJm7ShUGUAzoURUux5q18BIpI,VINOS Y ABARROTES EL RINCON,19.3011119,-99.1782001,4.8,4,1,36.0,2,"[39, 11, 41]",False,True,False,False,False,False,False
ChIJAXgqWmUAzoURIwmAZZCRp2M,ABARROTES Y SALCHICHONERIA IMAN,19.3011357,-99.1780167,5.0,5,1,,2,"[39, 11, 41]",False,True,False,False,False,False,False
ChIJmZWQvcIBzoUReb1aOU_FHNs,"ABARROTES Y SEMILLAS""LOCAL 9""",19.3005012,-99.1776125,4.6,4,1,36.0,2,"[39, 11, 41]",False,True,False,False,False,False,False
ChIJeZsnPmUAzoURLN876p6roHk,ABARROTES Y SEMILLAS PATY,19.2998527,-99.1774495,4.7,11,1,36.0,2,"[39, 11, 41]",False,True,False,False,False,False,False
ChIJpYd1ZmUAzoURiifnlNPIDb4,ABARROTES EL CHINO,19.3009587,-99.1771171,4.3,10,1,36.0,2,"[39, 11, 41]",False,True,False,False,False,False,False
ChIJ2XnPEmUAzoURmXzN4jXwHsI,LA NUEVA IMAGEN,19.3000786,-99.1768722,4.8,6,0,36.0,2,"[39, 11, 41]",False,True,False,False,False,False,False
ChIJjTd6f3wAzoURpWYV7ZfqaA0,ABARROTES Y CREMERIA EL POBLANO,19.2954392,-99.1817881,3.1,94,1,99.0,2,"[39, 11, 41]",False,True,False,False,False,False,False
ChIJLRU7mNIBzoURrnK_8uXinxI,OXXO NORTE FABELA MEX,19.2999536,-99.1758839,3.7,21,1,36.0,2,"[39, 5, 58, 64, 11, 41]",False,True,False,False,False,False,False
ChIJD7xBeXwAzoURYOwwOLSlr7I,7-ELEVEN,19.2951536,-99.1820502,3.8,36,1,107.0,2,"[39, 11, 41]",False,True,False,False,False,False,False
ChIJxWjdBQABzoURqUVq5ImrBeo,TORTILLERIA,19.29513249999999,-99.1817305,5.0,1,1,56.0,2,"[39, 11, 41]",False,True,False,False,False,False,False
ChIJAUBnomUAzoURUShZe-Du6QA,CREMERIA HIDALMEX,19.3001011,-99.1755699,5.0,3,1,36.0,2,"[39, 11, 41]",False,True,False,False,False,False,False
ChIJC7CSoXwAzoURA9uIYaynfg0,EL MUNDO DEL JABON,19.2951456,-99.1800687,3.9,11,1,56.0,2,"[5, 39, 11, 41]",False,True,False,False,False,False,False
ChIJJ3gqWW8AzoURFz_oYxsdUJ8,ABARROTES LA FAVORITA,19.3018271,-99.1745241,2.5,2,1,36.0,2,"[39, 11, 41]",False,True,False,False,False,False,False
ChIJTdIcP9YBzoURO5IOVWsusWk,OXXO CUEVITAS MEX,19.2939233,-99.181469,3.5,30,1,108.0,2,"[39, 5, 58, 64, 11, 41]",False,True,False,False,False,False,False
ChIJ46eKtnwAzoURlDnr3rZw_cc,ABARROTES INDEPENDENCIA,19.2942665,-99.1792633,3.8,14,1,56.0,2,"[39, 11, 41]",False,True,False,False,False,False,False
ChIJw9oALgQBzoUR50JPAkMLQgg,GOMART | LA LONJA,19.2937365,-99.1817603,4.3,131,1,98.0,2,"[39, 11, 41]",False,True,False,False,False,False,False
ChIJO06H8GUAzoURphEDwMM3gZc,ABARROTES LA ESTRELLA,19.3011915,-99.1739899,4.9,15,1,36.0,2,"[39, 41, 11]",False,True,False,False,False,False,False
ChIJN7tAk4kBzoURLAU3T9HhDRk,FELZ,19.2942531,-99.1791465,3.7,886,1,109.0,2,"[19, 39, 41, 11]",False,True,False,False,False,False,False
ChIJFccWQWQAzoURo1kBaBvFGwc,"ABARROTES "" EL SOL """,19.2975323,-99.1749099,4.6,9,1,,2,"[39, 41, 11]",False,True,False,False,False,False,False
ChIJ7bb_MmQAzoURq-qn_b4VuRs,ABARROTES ALBATROS,19.2986122,-99.1741548,5.0,2,1,36.0,2,"[39, 41, 11]",False,True,False,False,False,False,False
ChIJn8WadWYAzoUR7zMRztUGwyQ,CREMERIA LA NUEVA VAQUITA,19.3000822,-99.1732474,4.0,2,1,36.0,2,"[39, 41, 11]",False,True,False,False,False,False,False
ChIJTxAuUnwAzoUR92OevYCtYDg,TIENDA,19.2926385,-99.1822366,4.4,30,1,99.0,2,"[41, 39, 11]",False,True,False,False,False,False,False
ChIJRyPps3sAzoURvqHjGsBtQPk,RECO CERO,19.2978466,-99.1822588,4.1,1126,1,42.0,2,"[59, 41]",False,True,False,False,False,False,False
ChIJUZT8xmgBzoURI-7amicMvgU,"MEZCAL ESPIRITU NAGUAL LICOR DE SABORES, CREMAS DE MEZCAL, CURADOS MEZCAL ARTESANAL",19.2949049,-99.1819494,4.4,203,1,56.0,2,"[59, 41]",False,True,False,False,False,False,False
ChIJXwNM9AkBzoURjRDDjm6bovI,GOURMETIA Y PUNTO,19.2946263,-99.1831647,5.0,19,1,110.0,2,"[19, 59, 11, 41]",False,True,False,False,False,False,False
ChIJSedbC3sAzoURDWUAdEWhwNY,NEWLAND PLAZA CUICUILCO.,19.2981442,-99.1814257,4.0,1,1,42.0,2,"[16, 41]",False,True,False,False,False,False,False
ChIJAcILeHwAzoUR4duGgfK4l8g,JULIO,19.298018,-99.1816222,4.4,63,1,42.0,2,"[16, 41]",False,True,False,False,False,False,False
ChIJ66difHwAzoURLSGp94my1R4,PLAYERAS MEXICO,19.2948604,-99.1819757,4.4,25,1,56.0,2,"[16, 41]",False,True,False,False,False,False,False
ChIJLYy3nGMAzoURyiTGneFLL_k,UNIFORMS AND ARTIFICIAL AMERICANAS S.A. DE C.V.,19.2949643,-99.1758079,3.9,214,1,56.0,2,"[16, 41]",False,True,False,False,False,False,False
ChIJA-LDP2gBzoURgfLQ1L4B1eI,URBAN CUSTOM,19.3004103,-99.1790212,4.6,17,1,111.0,2,"[16, 41]",False,True,False,False,False,False,False
ChIJybGKnBoBzoURhzzYBoQziqE,CUDDLISH MX,19.3058125,-99.1801885,4.2,68,1,112.0,2,"[16, 41]",False,True,False,False,False,False,False
ChIJFy2-MkwBzoURs8k7_DR2TxU,CG FASHIONZINE,19.3009084,-99.1771144,4.2,7,1,36.0,2,"[16, 41]",False,True,False,False,False,False,False
ChIJAfpgLxABzoURLZw6X7z5iBk,MAKOTO,19.2978563,-99.1858258,5.0,1,1,58.0,2,"[16, 41]",False,True,False,False,False,False,False
ChIJAcILeHwAzoURje9I2NuYfGc,PRADA S.A. DE C.V.,19.2961265,-99.1827088,4.0,2,0,56.0,2,"[16, 41]",False,True,False,False,False,False,False
ChIJ0W9XoXwAzoUR8l-ZdghikFE,WONDERBRA PLAYTEX,19.295176,-99.179935,3.5,12,0,88.0,2,"[16, 41]",False,True,False,False,False,False,False
ChIJ_-YhDXwAzoURBhFRRGcuocw,ASISCOM DIGITAL,19.294647,-99.1840132,3.0,2,1,113.0,2,"[16, 41]",False,True,False,False,False,False,False
ChIJDSdMMgABzoURRX12w7W4zV0,NIDO BAZAR SAN FER,19.2950784,-99.1788899,4.3,37,1,99.0,2,"[16, 41]",False,True,False,False,False,False,False
ChIJQRkoZHwAzoURWJuyx4uUIB0,MANITA DE GATO,19.2942957,-99.1821122,1.0,1,1,,2,"[16, 41]",False,True,False,False,False,False,False
ChIJf05Jx2UAzoURzy2JkAZpJIc,PORROTIME'S SMOKE SHOP,19.2998416,-99.1746139,3.5,13,1,36.0,2,"[16, 41]",False,True,False,False,False,False,False
ChIJjdyjcp0BzoURAgzx8TEhrME,PERFUMERIA JHT,19.301465,-99.1741605,4.9,31,0,36.0,2,"[16, 41]",False,True,False,False,False,False,False
ChIJlwZoQ28AzoUR7RmlE5L494k,SAS COMFORT SHOES PERIFERICO SUR,19.30252249999999,-99.1744404,4.3,118,1,36.0,2,"[27, 41]",False,True,False,False,False,False,False
ChIJzRsDYLUBzoURS6ys1Dr_KpA,FLEXI CDMX PLAZA CUICUILCO,19.298336,-99.182484,3.0,2,1,42.0,2,"[27, 41]",False,True,False,False,False,False,False
ChIJY9br4ooBzoURGSOY4koUt6g,ZAPATERIA MARU,19.30054,-99.1773889,4.6,4,1,36.0,2,"[27, 41]",False,True,False,False,False,False,False
ChIJ4Y5nQm8AzoURnDTqLYf6SxU,LA GRAN CARPA ZAPATERIA,19.3026417,-99.1746228,3.0,2,1,,2,"[27, 41]",False,True,False,False,False,False,False
ChIJmbgSQ28AzoURMXi4ZvqM4OA,ISAS SHOES,19.3025868,-99.174422,4.1,25,1,,2,"[27, 41]",False,True,False,False,False,False,False
ChIJEysALWMAzoURv0rD-0i-mAY,ZAPATERIA INSURGENTES,19.2932211,-99.1786678,4.4,97,1,,2,"[27, 41]",False,True,False,False,False,False,False
ChIJVVVVlY8AzoURyeHX8vwi-5Y,STEREN TLALPAN,19.2937477,-99.179851,4.1,217,1,114.0,2,"[63, 41]",False,True,False,False,False,False,False
ChIJjW7ImLoBzoUR4c14YG3zv0A,GRUPO ATP,19.2941634,-99.1773015,4.4,150,1,56.0,2,"[63, 41]",False,True,False,False,False,False,False
ChIJZXHizNT90YURLY3JyqWk45k,DIS CONSULTING,19.2938645,-99.1810509,3.3,26,1,98.0,2,"[63, 41]",False,True,False,False,False,False,False
ChIJsVYrHAABzoURm0tVB0nLfbk,ARC BELMONTE,19.2954001,-99.1767899,4.9,170,1,88.0,2,"[63, 41]",False,True,False,False,False,False,False
ChIJzcdZm2MAzoURrapmzF3nbzM,FOTO SAN FERNANDO,19.2951971,-99.1764185,4.4,60,1,88.0,2,"[63, 5, 41]",False,True,False,False,False,False,False
ChIJX6s6MQABzoURY8l0LiuDwTc,PLAZA PUNTO SUR,19.294653,-99.1831782,3.0,2,1,98.0,2,[8],False,True,False,False,False,False,False
ChIJBxYaSw0BzoURXNrUTU49ZTk,PLAZA ESPACIO SUR,19.29462269999999,-99.1830895,4.3,623,1,98.0,2,[8],False,True,False,False,False,False,False
ChIJrfWwGEIBzoURweLYUvZWI_s,LEON DE NAVAJAS INSURGENTES SUR,19.2931484,-99.1794036,4.5,100,1,56.0,2,"[8, 69, 42]",False,True,False,False,False,False,False
ChIJj2OEeHwAzoUR85iYrjsUrvk,SHAMI FERRETERA,19.2954495,-99.1819122,4.2,416,1,115.0,7,"[47, 41]",False,False,False,False,False,False,True
ChIJFecurXcBzoUROAFFiOlpjSM,FERRETERIA MANLOZ,19.2954501,-99.1820594,2.7,3,1,42.0,7,"[47, 41]",False,False,False,False,False,False,True
ChIJRT2ax2UAzoUR2ylH0X7LEiY,TLAPALERIA LA ROCA,19.29964379999999,-99.1746182,4.5,248,1,36.0,7,"[47, 41]",False,False,False,False,False,False,True
ChIJ2QJhTTYBzoURfSpsigz3RwI,VENTA DE LIBROS USADOS,19.2959308,-99.183979,3.0,2,1,42.0,2,"[46, 41]",False,True,False,False,False,False,False
ChIJaWaYHHsAzoURZYFoyXXD8V4,SMART FIT CUICUILCO,19.2979487,-99.1814848,4.1,892,1,116.0,3,"[15, 42]",False,False,True,False,False,False,False
ChIJi2wT63wAzoURA4NSkMtPs7U,ONE FITNESS,19.2940075,-99.1804182,3.9,242,0,42.0,3,"[15, 42]",False,False,True,False,False,False,False
ChIJ2YjpDmUAzoURUkEM_1AFk50,GYM DOLPHINS CARRASCO,19.2996286,-99.1764593,4.4,317,1,36.0,3,"[15, 42]",False,False,True,False,False,False,False
ChIJzRG2uiIBzoURiKuhhcCYJ7c,ATMOS INDOOR CYCLING STUDIO,19.29859459999999,-99.1809543,4.8,17,1,117.0,3,"[15, 42]",False,False,True,False,False,False,False
ChIJ8aFTaGQAzoUREGIqQJOME84,DEPORTIVO SAN FERNANDO ISSSTE,19.2982972,-99.1771858,4.5,1072,1,88.0,3,"[15, 42]",False,False,True,False,False,False,False
ChIJaxs45WQAzoURrbgqb77lrgg,"CENTRO SOCIAL, CULTURAL Y DEPORTIVO DEL SNTISSSTE",19.2983902,-99.1768291,4.6,433,1,118.0,3,"[15, 42]",False,False,True,False,False,False,False
ChIJRdbM0IoBzoURtjz9iS-SoyM,ACTIVE 24 INSURGENTES,19.29462269999999,-99.1830895,4.8,2234,1,98.0,3,"[15, 42]",False,False,True,False,False,False,False
ChIJBf1xaAABzoURBQObyiG9SBA,NATACION,19.2981399,-99.1755296,4.8,36,1,119.0,3,"[15, 42]",False,False,True,False,False,False,False
ChIJ7-gW63wAzoURgYLovm9yETc,OFLGYM,19.294109,-99.1805433,1.9,16,0,56.0,3,"[15, 42]",False,False,True,False,False,False,False
ChIJxd5R37EBzoUR749rEEQUuzo,GPO SCOUT 68 IMD,19.2957277,-99.1767906,5.0,4,1,99.0,3,"[15, 42]",False,False,True,False,False,False,False
ChIJ24mNWgABzoURbU_MNNSfnP4,OLIMPUS GYM INSURGENTES,19.29395049999999,-99.1803924,4.8,54,1,56.0,3,"[15, 42]",False,False,True,False,False,False,False
ChIJ_5GDQLYBzoURKdKkuH_sLaE,PITBULLS FTP,19.2935246,-99.1814959,4.9,7,1,98.0,3,"[15, 42]",False,False,True,False,False,False,False
ChIJlWX4M2MAzoURjfDm6vO9bvg,DEPORTIVO POPULAR,19.29368329999999,-99.1786081,4.1,21,1,56.0,3,"[15, 42]",False,False,True,False,False,False,False
ChIJNVPsIYwBzoUR9r1iBZulkso,GOTHAM FITNESS,19.2958949,-99.1750581,5.0,1,0,120.0,3,"[15, 42]",False,False,True,False,False,False,False
ChIJJWWDoGUAzoURrW7Qiv_dcmk,FARMACIAS SIMILARES,19.2999421,-99.1760115,3.5,22,1,121.0,3,"[7, 3, 41, 42]",False,False,True,False,False,False,False
ChIJaYSZYQwBzoURSCpZ_7s-OjM,FARMACIAS DEL AHORRO SAN FERNANDO,19.2951989,-99.1793556,3.9,92,1,122.0,3,"[7, 50, 41, 42]",False,False,True,False,False,False,False
ChIJCW0ti3wAzoURWGhi4vt1miY,FARMACIAS DEL AHORRO PENA POBRE,19.2939185,-99.1813332,3.3,49,1,104.0,3,"[7, 50, 41, 42]",False,False,True,False,False,False,False
ChIJac7yZWMAzoUR6NYnoyTWq6Q,FARMACIA SAN PABLO SAN FERNANDO,19.294881,-99.177075,4.0,408,1,123.0,3,"[7, 50, 41, 42]",False,False,True,False,False,False,False
ChIJe3lzv2UAzoUR1vYr0Mb3ujU,FARMACIA ISIDRO FABELA,19.2999558,-99.1729801,4.3,26,1,36.0,3,"[7, 41, 42]",False,False,True,False,False,False,False
ChIJkbhZbGUAzoUR1fC4hcgqmPY,FARMACIA AZTLAN,19.3003107,-99.1771228,5.0,4,1,36.0,3,"[7, 41, 42]",False,False,True,False,False,False,False
ChIJbS-QWQABzoUR5UACSayW2EY,FARMACIA VICTORIA,19.3000857,-99.1761497,4.0,461,1,36.0,3,"[7, 41, 42]",False,False,True,False,False,False,False
ChIJi6B5R18BzoURKFX742rS_EQ,FARMAZUL,19.3000737,-99.1755983,4.0,4,1,36.0,3,"[7, 41, 42]",False,False,True,False,False,False,False
ChIJjb-Jbm8AzoURqoi8wc8raWs,FARMAMIGO PERIFERICO,19.3027254,-99.1751895,4.1,25,1,36.0,3,"[7, 41, 42]",False,False,True,False,False,False,False
ChIJeWgmk0ABzoUR1KOKx48yrCU,FARMACIA DE GENERICOS Y PATENTE,19.3000635,-99.1752117,4.1,7,1,36.0,3,"[7, 41, 42]",False,False,True,False,False,False,False
ChIJf05Jx2UAzoURtFSwLmiT4sE,FARMACIA Y CONSULTORIO CRESPO,19.2998416,-99.1746139,4.1,64,1,36.0,3,"[7, 41, 42]",False,False,True,False,False,False,False
ChIJq6qmXm8AzoURdr1uc2wDQtM,OM FARMACIAS,19.302077,-99.1743915,4.3,3,0,36.0,3,"[7, 41, 42]",False,False,True,False,False,False,False
ChIJ7deyn_EBzoUR9Rhuy2yeKyg,FARMACIAS SIMILARES,19.2949918,-99.1775855,2.9,7,1,124.0,3,"[7, 41, 42]",False,False,True,False,False,False,False
ChIJodXcHwABzoURebBhyOAorbk,FARMACIAS GUADALAJARA,19.2952323,-99.1763173,3.6,27,1,88.0,3,"[7, 50, 41, 42]",False,False,True,False,False,False,False
ChIJdQg8bmQAzoURBrhTRWa8I94,FARMACIA DE GENERICOS,19.2963565,-99.1751316,4.5,16,0,125.0,3,"[7, 41, 42]",False,False,True,False,False,False,False
ChIJvSq7dWYAzoURZ8GY6OnP_aY,MEDICINAS O.T.C.,19.3000798,-99.1731749,4.2,22,1,36.0,3,"[7, 41, 42]",False,False,True,False,False,False,False
ChIJXakYIpABzoURUGRVCU04W7E,NOITZY NAILS,19.2979453,-99.181233,2.0,5,1,42.0,3,[31],False,False,True,False,False,False,False
ChIJaVWFVHoAzoURE3BMfYGddz4,STUDIO CAPELLI,19.297731,-99.1810234,4.2,218,1,126.0,3,[31],False,False,True,False,False,False,False
ChIJdVQbKAABzoURciH5wb473NE,FRESITA NAILS,19.3022713,-99.1778908,4.5,8,1,36.0,3,[31],False,False,True,False,False,False,False
ChIJXQ8OFgABzoURCFfwqgo58bI,MY HAPPY PLACE,19.3020353,-99.177234,5.0,10,1,36.0,3,[31],False,False,True,False,False,False,False
ChIJ83HEbwQBzoURWFBF9qsgOhM,ESTETICA ARA,19.3005141,-99.1772587,4.8,4,1,36.0,3,[31],False,False,True,False,False,False,False
ChIJ2_PIjW8AzoURfn9ufyWr9LY,CLINICA DE BELLEZA,19.3021663,-99.177172,5.0,1,1,36.0,3,[31],False,False,True,False,False,False,False
ChIJAdB3bAABzoURIoO85p3n0O0,VALENTINAS SALON,19.29992189999999,-99.1772462,4.5,3,1,36.0,3,[31],False,False,True,False,False,False,False
ChIJZfanGAABzoUR2wX37JbbnqA,ENCHANTED BEAUTY SALON,19.30251489999999,-99.1769727,4.7,48,1,36.0,3,[31],False,False,True,False,False,False,False
ChIJbRRPcnsAzoURRtpplE2ZVrQ,BODYBRITE PLAZA CUICUILCO,19.2954874,-99.1821333,4.3,82,0,86.0,3,"[31, 69, 41]",False,False,True,False,False,False,False
ChIJzy2YgHwAzoUR0uOLfo3cCBI,SOLO UNAS MANICURE & PEDICURE,19.295492,-99.18119430000002,2.6,9,1,56.0,3,[31],False,False,True,False,False,False,False
ChIJXQSYgHwAzoUROkABg2eDOM4,D'CACHE ESTETICA UNISEX,19.2952108,-99.1815987,1.0,1,1,56.0,3,[31],False,False,True,False,False,False,False
ChIJRR88fnwAzoURmvztfrb2P_0,SALON YARU,19.2951728,-99.1816753,1.2,10,1,127.0,3,[31],False,False,True,False,False,False,False
ChIJ_5RCEoQBzoURy5zk3Bx0IYY,XPRESSARTE ESTETICA,19.2951441,-99.1813878,4.5,75,1,128.0,3,[31],False,False,True,False,False,False,False
ChIJI4mphHwAzoUR_tSkAGfSinQ,ESTETICA,19.2951391,-99.1813801,4.5,8,0,42.0,3,[31],False,False,True,False,False,False,False
ChIJkUIL-OABzoUR4tmo4VFo_f8,CORTE BORDADO / LIMPIEZA DE ORZUELA ROEVY,19.2951418,-99.1812829,4.9,10,1,129.0,3,[31],False,False,True,False,False,False,False
ChIJw3v93BQBzoURM7MhQS0KqMY,ESTETICA & BARBER SHOP ATENEA,19.2949528,-99.1821206,4.8,84,1,130.0,3,"[31, 69, 42]",False,False,True,False,False,False,False
ChIJ0W9XoXwAzoURV8-ogFWD1hk,ESTETICA AAMONT,19.2951603,-99.1798903,3.0,3,1,42.0,3,[31],False,False,True,False,False,False,False
ChIJNyfR2jUBzoUR_GomfOnbRK0,SKIN & BODY SPA INSURGENTES,19.29462269999999,-99.1830895,5.0,17,1,131.0,3,"[12, 31, 69, 42]",False,False,True,False,False,False,False
ChIJl2gfX7YD0oURkEqJsQ2GJXE,NZURI NAILS STUDIO,19.29462269999999,-99.1830895,4.6,111,1,98.0,3,[31],False,False,True,False,False,False,False
ChIJS1R-Z28AzoURqNTFaLJHMHE,ESTETICA JUVENILLE,19.30213969999999,-99.1748483,3.0,2,1,36.0,3,[31],False,False,True,False,False,False,False
ChIJt6uEiWYBzoURjaRh09D4KsY,AB BEAUTY BARBER SPA (ESTETICA UNISEX),19.2944693,-99.1815017,4.6,97,1,132.0,3,"[31, 69, 42]",False,False,True,False,False,False,False
ChIJJ90p5t4BzoUReA_dUx1Ea44,SILVIA BEAUTY STUDIO,19.295111,-99.1789549,3.7,3,1,56.0,3,[31],False,False,True,False,False,False,False
ChIJ94cLeGQAzoURv11UFDhN4hQ,ESTETICA DE GINA,19.2964311,-99.1767501,4.1,44,1,88.0,3,[31],False,False,True,False,False,False,False
ChIJJcdAwWUAzoURC2hgMkE7XO0,ESTETICA ~ ARIES,19.2999427,-99.1743908,4.8,11,1,36.0,3,[31],False,False,True,False,False,False,False
ChIJyW_NyWUAzoURu3EPDYdQVkA,MARISOL ESTETICA,19.2993547,-99.1745471,4.6,10,1,36.0,3,[31],False,False,True,False,False,False,False
ChIJA0gGTGMAzoURxktRfCyWaY4,STUDIO TECNICS & VISION,19.2945511,-99.1785401,3.5,4,1,42.0,3,[31],False,False,True,False,False,False,False
ChIJOTru7PMBzoUR2MMIdOPSlpg,POWER STUDIO,19.3000819,-99.1739954,3.9,7,1,36.0,3,[31],False,False,True,False,False,False,False
ChIJRUO2wJkBzoURaUbDmmmfRhs,RITUAL BEAUTY STUDIO,19.3003039,-99.1739372,5.0,17,1,133.0,3,[31],False,False,True,False,False,False,False
ChIJk1TADhIBzoURx1Py-ahI2zk,ELYXIUM VIP BEAUTY ROOM,19.2954071,-99.176819,4.3,315,1,88.0,3,[31],False,False,True,False,False,False,False
ChIJ6_vXYVUBzoURyJczWTBUzj8,ESTETICA FACES,19.2934816,-99.182059,4.2,144,1,134.0,3,[31],False,False,True,False,False,False,False
ChIJKVtXfwABzoURU_6MnIKnerM,GIVANA WELLNESS,19.2952071,-99.1767058,4.3,437,1,88.0,3,[31],False,False,True,False,False,False,False
ChIJ20lhQIEBzoUR1Q0jkMK1u2o,LASHES 469 - PESTANAS PREMIUM,19.2951868,-99.1767185,4.3,6,1,135.0,3,[31],False,False,True,False,False,False,False
ChIJUesXbGQAzoUREgUl0tTGy0g,ESTUDIO 54 ESTETICA & BARBERIA,19.2968244,-99.1749787,5.0,2,1,136.0,3,[31],False,False,True,False,False,False,False
ChIJu5UO1Fr_0YUR6F_dqNE-494,PIU COQUETTE,19.2979144,-99.174297,4.9,16,1,36.0,3,[31],False,False,True,False,False,False,False
ChIJh5bD128AzoUR8HT3Aoo3q8A,ESTETICA TT BEAUTY STUDIO.,19.3018665,-99.1731501,4.0,15,1,36.0,3,[31],False,False,True,False,False,False,False
ChIJtw_UdWYAzoURA5g4zY9b-h0,"ESTETICA UNISEX ""NEW ISPACK""",19.2999489,-99.1730697,4.5,57,1,36.0,3,[31],False,False,True,False,False,False,False
ChIJNyLoTQABzoURn_Snf9D2dZE,NAILKERY PATIO PEDREGAL / PERIFERICO SUR 5270,19.3033829,-99.1729279,4.9,16,1,25.0,3,[31],False,False,True,False,False,False,False
ChIJt9iWgGgAzoURtVMjxiqeSVY,INTERNACIONAL UNISEX,19.3032506,-99.1728863,4.0,8,1,25.0,3,"[31, 69]",False,False,True,False,False,False,False
ChIJOdQDjRcBzoURwG5liUnb6fU,ACCUA SPA,19.2981442,-99.1814257,5.0,1,1,42.0,3,[12],False,False,True,False,False,False,False
ChIJ-YPho3wAzoURZ-O0U8e_cCU,TECNICAS PARA LA SALUD,19.295171,-99.179935,3.7,7,1,42.0,3,"[12, 42]",False,False,True,False,False,False,False
ChIJ3dP6jcoBzoUR9OWm3LXPrKw,SILUET SPA BASSICO,19.3031925,-99.1738017,5.0,11,1,25.0,3,[12],False,False,True,False,False,False,False
ChIJAabPJggBzoURCRp2T1gz3Z0,TWIST SPA PEDREGAL,19.3031512,-99.1737457,3.4,7,1,25.0,3,[12],False,False,True,False,False,False,False
ChIJ0fPgoQ4BzoURgdljlmbZlvc,VIDA AZUL MASAJES RELAJANTES,19.2948927,-99.1769482,4.3,220,1,99.0,3,"[12, 42]",False,False,True,False,False,False,False
ChIJb9QO2sQBzoUR0De34U_f_90,DEYKAHSPA,19.3033753,-99.1731449,4.3,146,1,137.0,3,[12],False,False,True,False,False,False,False
ChIJ4WQJUXoAzoURmZ2-SasiIho,CINEMEX. PLAZA CUICUILCO.,19.298242,-99.181,4.3,5125,1,86.0,4,[51],False,False,False,True,False,False,False
ChIJATomAZMBzoURPzD3H3wGbZE,TACOS DE GUISADO EL GETTO,19.2941428,-99.1815484,3.0,2,1,99.0,4,[33],False,False,False,True,False,False,False
ChIJJc1r73sAzoUR4XhNLSBwwg0,PARQUE ECOLOGICO LORETO Y PENA POBRE,19.2964011,-99.1838263,4.6,5234,1,42.0,4,"[28, 65]",False,False,False,True,False,False,False
ChIJ_SidlfYBzoUR-q0YwznV2DQ,EL ZAPOTE PARK,19.299405,-99.1782525,4.3,22,0,138.0,4,[28],False,False,False,True,False,False,False
ChIJCeclMGUAzoURHtGFNcYRZBs,SALON DE EVENTOS UNIDAD ZAPOTE 2,19.2993404,-99.1782631,3.5,44,1,139.0,4,[28],False,False,False,True,False,False,False
ChIJE6jKYyYBzoURtzs1d2iXpU4,TORRE 3 PARK,19.295898,-99.1860282,5.0,2,1,19.0,4,[28],False,False,False,True,False,False,False
ChIJDzM2OJsBzoURJ2a3app_YKo,ANTIGUA PLAZUELA DE SAN FERNANDO 1849-2024,19.2957518,-99.1757808,4.4,68,1,88.0,4,[28],False,False,False,True,False,False,False
ChIJydXEL2MAzoUR6caIzWTqYHw,MODULO DEPORTIVO BELISARIO DOMINGUEZ,19.2939221,-99.1783545,4.2,392,1,56.0,4,[28],False,False,False,True,False,False,False
ChIJIxqXkXsAzoURJMMyA52qIwo,HSBC,19.2963636,-99.1826312,2.3,40,1,42.0,5,"[1, 64]",False,False,False,False,True,False,False
ChIJ4ahY8g4BzoUR40CND7LOMqA,COMPARTAMOS BANCO,19.2945252,-99.1816563,2.5,21,1,42.0,5,"[1, 64]",False,False,False,False,True,False,False
ChIJZyE34akBzoURPHj3y_Fuo8A,BANCO AZTECA,19.2942922,-99.1818105,3.5,251,1,140.0,5,"[1, 37, 40, 64]",False,False,False,False,True,False,False
ChIJpeN1M5MAzoURJt5bbkCxBps,HSBC PENA POBRE,19.2938304,-99.1794409,2.2,36,1,42.0,5,"[1, 64]",False,False,False,False,True,False,False
ChIJn7OwZnwAzoURV3f9i43LAHk,CAJERO AUTOMATICO BANCO AZTECA,19.2941443,-99.1819519,2.7,10,1,42.0,5,"[37, 64]",False,False,False,False,True,False,False
ChIJKy_JGSYBzoURPOmBg6m7QdE,ATM/CAJERO BBVA,19.2963578,-99.1793227,1.9,8,1,141.0,5,"[37, 64]",False,False,False,False,True,False,False
ChIJU45U1YoBzoUR9SXHRgtU1HI,ATM/CAJERO BBVA,19.3031809,-99.1739493,4.5,172,1,142.0,5,"[37, 64]",False,False,False,False,True,False,False
ChIJWXL1oHwAzoURwOl7BPpsSo4,INSTITUTO JOSE RAMON FERNANDEZ,19.2957763,-99.1799774,4.7,13,1,42.0,6,"[55, 32]",False,False,False,False,False,True,False
ChIJv4Mka3wAzoURWAblsupOx78,ESCUELA MAESTRO MANUEL ACOSTA - PLANTEL TENANCALCO,19.295087,-99.1820843,3.5,8,1,99.0,6,[32],False,False,False,False,False,True,False
ChIJwWXsXWMAzoURkZlPpmlidvE,"E.B.D.I NO.14, ISSSTE.",19.2952372,-99.1776313,4.8,16,1,88.0,6,[32],False,False,False,False,False,True,False
ChIJqzJnSmQAzoURdDQuq_qgnys,COLEGIO ASUNCION MILLERET,19.2982213,-99.1748495,4.7,9,1,36.0,6,"[66, 32]",False,False,False,False,False,True,False
ChIJP1G6YXsAzoUR332bf3ryNJQ,SECUNDARIA NUMERO 155 MAXIMINO MARTINEZ,19.2989142,-99.1792647,4.4,739,1,36.0,6,[32],False,False,False,False,False,True,False
ChIJpwy0B1cAzoURbkYQQiuh5yA,COLEGIO OLINCA,19.303743,-99.1766027,4.3,83,1,25.0,6,[32],False,False,False,False,False,True,False
ChIJdT9sbWMAzoUR2yrFho5xnKQ,ESCUELA PICASSO,19.2943116,-99.1766499,4.4,187,1,56.0,6,"[66, 32]",False,False,False,False,False,True,False
ChIJZZgDtXoAzoURo9j5UK7areM,"ESCUELA PRIMARIA ""CUICUILCO""",19.2999717,-99.1789906,4.5,24,1,139.0,6,"[66, 32]",False,False,False,False,False,True,False
ChIJl-2XaGUAzoURffT7Ic0wHss,JARDIN DE NINOS ROTARIOS DE TLALPAN,19.3007111,-99.177275,4.0,4,1,36.0,6,[32],False,False,False,False,False,True,False
ChIJ2xC--3sAzoURqIk8RmpRhAc,COLEGIO TOCANI MONTESSORI,19.296816,-99.183122,4.1,1067,1,42.0,6,[32],False,False,False,False,False,True,False
ChIJ-XbvYLIBzoURgkLlUwZexkg,LICEO INTERCONTINENTAL,19.2967605,-99.1831219,4.1,1067,1,42.0,6,[32],False,False,False,False,False,True,False
ChIJhSnt6IkAzoURpB_XYZaBTB8,SCHOOL MAESTRO MANUEL ACOSTA - SOUTH CAMPUS,19.2942712,-99.1823846,4.9,8,1,143.0,6,[32],False,False,False,False,False,True,False
ChIJr-SrUXgBzoURjTHxxeU1m78,JARDIN DE NINOS ASUNCION MILLERET,19.2968467,-99.1799876,4.2,1344,1,88.0,6,[32],False,False,False,False,False,True,False
ChIJudB0Z3sAzoURjBQ9aMgo-yc,CULTURAL PENA POBRE A.C.,19.2968393,-99.1799854,5.0,7,1,88.0,6,[32],False,False,False,False,False,True,False
ChIJO2214lYBzoURuA2G8r7Ul9A,JARDIN DE NINOS MARIA EUGENIA MILLERET,19.2967251,-99.1798903,5.0,4,1,42.0,6,[32],False,False,False,False,False,True,False
ChIJIdAPJ_ABzoUREgnzvMH525k,KINDER BEGINNERS,19.2962012,-99.1826716,5.0,1,1,129.0,6,[32],False,False,False,False,False,True,False
ChIJXUOF2KIBzoURTkdX-ObTVpc,PRIMARIA & PRE-FIRST BLEECKERS SCHOOL,19.296188,-99.1825121,4.1,26,1,144.0,6,[32],False,False,False,False,False,True,False
ChIJOVDmn3wAzoURDHIX5L3YNrs,FORMACION BILINGUE,19.2954944,-99.1802882,4.2,13,1,56.0,6,[32],False,False,False,False,False,True,False
ChIJq6rJn3wAzoURU_-t788JkrY,COLEGIO LIBERTADORES DE AMERICA,19.2954475,-99.1803553,4.2,13,1,42.0,6,[32],False,False,False,False,False,True,False
ChIJeYr8VmQAzoURBNdjsx2qJ8M,COLABORADORES LENGUA DE SENAS MEXICANA,19.2981661,-99.1758565,4.3,334,1,119.0,6,[32],False,False,False,False,False,True,False
ChIJE-Yct0wBzoURFdxcN3lQn5M,"CENTRO KUMON DE MATEMATICAS, LECTURA E INGLES DE VILLA OLIMPICA",19.2945982,-99.1830865,4.1,31,1,145.0,6,[32],False,False,False,False,False,True,False
ChIJTcJXbnwAzoUR03aOePT3Euw,ESCUELA NINOS,19.2944885,-99.1825058,3.8,54,1,146.0,6,[32],False,False,False,False,False,True,False
ChIJPXF6v2UAzoURTO72QQXTHb4,GRAL. FELIPE ANGELES,19.2989621,-99.1749072,4.4,241,1,36.0,6,"[66, 32]",False,False,False,False,False,True,False
ChIJgSFgRu4BzoURTHOv6TQfKpE,"VOICE CORE, ESCUELA DE CANTO",19.3041508,-99.174817,5.0,12,1,147.0,6,[32],False,False,False,False,False,True,False
ChIJjZL2QWQAzoURcP7XCllGRr8,ESCUELA DE BUCEO OCEANO PROFUNDO - ALBERCA CUICUILCO,19.297387,-99.1749006,4.6,9,1,148.0,6,"[32, 58]",False,False,False,False,False,True,False
ChIJaTx-TWoBzoURrAc4MhcX6-E,CLASES DE MUSICA,19.3068889,-99.1764087,5.0,1,1,149.0,6,[32],False,False,False,False,False,True,False
ChIJGTNRiRMBzoURWwve-ygAHd4,ESCUELA DOLORES GUERRERO,19.2935408,-99.1807817,4.4,311,1,150.0,6,[32],False,False,False,False,False,True,False
ChIJRUZGwG4AzoURpow0U4Z-dpA,SEP J DE NINOS M 916 PILTZINTECUTLI,19.3060217,-99.1745926,4.4,5,1,25.0,6,[32],False,False,False,False,False,True,False
ChIJPSYPy3EAzoURH8SZ1Uq9k38,"KINDERGARTEN ""HERMELINDA BERMUDEZ SEYSSEL""",19.3061538,-99.1745709,4.2,15,0,25.0,6,[32],False,False,False,False,False,True,False
ChIJO8KJ3nwAzoURLIAsPoXubes,JARDIN DE NINOS RAUL ISIDRO BURGOS,19.2929041,-99.1800378,4.7,70,1,151.0,6,[32],False,False,False,False,False,True,False
ChIJP1GIJQox2YARVPqEmKmrORU,ESCUELA DE DIETETICA Y NUTRICION,19.2977833,-99.1765523,4.7,138,1,152.0,6,[55],False,False,False,False,False,True,False
ChIJPzGFoXwAzoURB2RfnX5noYo,DRYCLEAN NY TINTORERIA,19.295166,-99.1800655,4.0,4,1,42.0,7,[67],False,False,False,False,False,False,True
ChIJue9kPGUAzoURDq57AobwTQw,LAVANDERIA Y PLANCHADURIA + X -,19.2999197,-99.1774104,5.0,1,1,36.0,7,[67],False,False,False,False,False,False,True
ChIJk-6SfnwAzoUR_2iSS-ax7NM,LAVANDERIA SUR AZUL,19.2951657,-99.1818919,3.8,35,1,42.0,7,[67],False,False,False,False,False,False,True
ChIJb0fCZ28AzoUR-y6igDCkaQ0,LAVA EXPRESS,19.3023337,-99.1748188,3.7,25,1,36.0,7,[67],False,False,False,False,False,False,True
ChIJYVB8unwAzoURVYyAVrdYSps,LAVANDERIA GENESIS,19.2946607,-99.1795191,4.0,14,1,42.0,7,[67],False,False,False,False,False,False,True
ChIJNcHYQQoBzoURaEDtWRgyW7Q,LAVANDERIA CHOMIS,19.3010233,-99.1744268,4.9,22,0,36.0,7,[67],False,False,False,False,False,False,True
ChIJiTBRwmUAzoURlieJqXyz3kA,PLANCHADURIA LUPITA,19.3000932,-99.1741744,4.2,58,1,36.0,7,[67],False,False,False,False,False,False,True
ChIJl1UiMn4BzoUR4X1v89k86Vc,LAVANDERIA TETE,19.2936882,-99.1826789,5.0,2,1,98.0,7,[67],False,False,False,False,False,False,True
ChIJh4xzdhUBzoURPtWiaHE9vqI,"JUAN DE DIOS ARTESANOS PELETEROS, ARTESANO AUTOMOTRIZ",19.300578,-99.1739827,4.8,13,1,36.0,7,"[67, 30]",False,False,False,False,False,False,True
ChIJD1WReGMAzoURDdT5iZvLDhA,CENTRO DE LAVADO Y PLANCHADO SAN FERNANDO,19.2952644,-99.1761337,4.3,362,1,88.0,7,[67],False,False,False,False,False,False,True
ChIJJx6Avm4AzoURnwgeO8g-GaA,TINTORERIA DE GUADALUPE,19.3060448,-99.1745308,5.0,3,1,25.0,7,[67],False,False,False,False,False,False,True
ChIJ3den23wAzoUR4Ij757x625w,LAVANDERIA EMANUELLE,19.293157,-99.179739,5.0,1,0,98.0,7,[67],False,False,False,False,False,False,True
ChIJSYj5s6YBzoURSLAZGyW-Xss,TINTORERIA CLEAN-SPA,19.307135,-99.1748391,3.0,2,1,153.0,7,[67],False,False,False,False,False,False,True
ChIJM5F3mG4AzoUR4r_ojuiEMbk,LAVANDERIA AKALLI,19.3071211,-99.1748142,5.0,2,1,25.0,7,[67],False,False,False,False,False,False,True
ChIJgeF1M5MAzoURPRoR0kmC7lw,HIPER LLANTAS 2000,19.29345099999999,-99.1800544,3.9,290,1,154.0,7,"[30, 41]",False,False,False,False,False,False,True
ChIJRYI03XwAzoURGi9WPTVgA7c,BRIDGESTONE SERVICE CENTER,19.2934438,-99.1800353,4.5,272,1,104.0,7,"[30, 41]",False,False,False,False,False,False,True
ChIJd1fhMmMAzoURCHi5nfHLkS4,LAS FLORES AUTOMOTRIZ,19.2936062,-99.1787655,4.9,12,1,56.0,7,[30],False,False,False,False,False,False,True
ChIJY9EMElkBzoURLzIwtU_JC70,SERVICIO AUTOMOTRIZ RUIZ,19.3011217,-99.1782749,5.0,11,1,155.0,7,[30],False,False,False,False,False,False,True
ChIJ19ATlm8AzoURwcw76Js2aq4,LLANTICREDIT PERISUR,19.3029914,-99.1770456,4.4,223,1,156.0,7,"[30, 41]",False,False,False,False,False,False,True
ChIJcUDtcmUAzoURDcAASU09i0U,LOGISTICA AUTOMOTRIZ,19.3008448,-99.1766793,4.6,10,1,36.0,7,[30],False,False,False,False,False,False,True
ChIJZVG-2nwAzoURqx3vmkLDEGs,BOUTIQUE STEEL BIKERS,19.3026971,-99.176766,4.0,6,1,36.0,7,[30],False,False,False,False,False,False,True
ChIJcUDtcmUAzoURq_MzmNRfGLM,AUTOMOTRIZOSCAR,19.30086159999999,-99.1766485,4.3,23,1,36.0,7,[30],False,False,False,False,False,False,True
ChIJ0Sn4mG8AzoUR1TJKvDypYRw,MANTENIMIENTO AUTOMOTRIZ,19.3028653,-99.1767278,5.0,2,1,36.0,7,[30],False,False,False,False,False,False,True
ChIJVxafmcoBzoURLdwwXX3m-wQ,MECANICA AUTOMOTRIZ PAPITO LINDO,19.30286599999999,-99.176658,4.5,52,1,157.0,7,[30],False,False,False,False,False,False,True
ChIJTfdMvW8AzoURlPnn9bQsY44,ESTETICA AUTOMOTRIZ,19.30286,-99.1765183,4.3,83,1,,7,[30],False,False,False,False,False,False,True
ChIJzSzBVpoBzoURrpcBBvunLyU,TALLER MECANICO AUTOMOTRIZ EL CHATO,19.2960978,-99.1804569,4.6,14,1,88.0,7,[30],False,False,False,False,False,False,True
ChIJheMdgnwAzoURNVWU9HA7XRI,MOTOSERVICIO KATANA,19.2955081,-99.1820275,3.0,9,1,42.0,7,[30],False,False,False,False,False,False,True
ChIJZULJE4EAzoURqojQS5O5_sI,VULCANIZADORA PERISUR,19.3027575,-99.1757841,4.0,153,1,158.0,7,[30],False,False,False,False,False,False,True
ChIJaay_g3wAzoURcl0Ll4Le-Vc,VULCANIZADORA,19.2951366,-99.1812745,4.6,447,1,42.0,7,"[30, 41]",False,False,False,False,False,False,True
ChIJc2-3vakBzoURoumI-cWufZI,VULCANIZADORA EL RUSO MOTOS Y AUTOS,19.3025945,-99.1755036,5.0,4,1,159.0,7,[30],False,False,False,False,False,False,True
ChIJd6x8sMQBzoUReiNwOXJwO1c,PICHUS VOLKS SWAPS,19.3002213,-99.1752465,5.0,1,1,36.0,7,[30],False,False,False,False,False,False,True
ChIJmc94tnwAzoUREtV0ICz0o2E,HOJALATERIA Y PINTURA AUTOMOTRIZ-NISSAN-TOYOTA-MAZDA-CHEVROLET-GMC,19.2946779,-99.1812714,5.0,1,1,56.0,7,[30],False,False,False,False,False,False,True
ChIJj7rdZ28AzoUR6L6-spa3YAA,SERVICIO ELECTRICO ALTERNADORES,19.3023337,-99.1748188,4.0,1,1,36.0,7,[30],False,False,False,False,False,False,True
ChIJ5Tiiv2UAzoURsKJDT0tah3g,MECANICO EN GENERAL,19.3001374,-99.1748099,4.2,15,1,36.0,7,[30],False,False,False,False,False,False,True
ChIJwXzve0kBzoURAwssGAX4Byc,THE DOCTOR MOTOS.,19.3001241,-99.1747899,4.2,15,0,36.0,7,[30],False,False,False,False,False,False,True
ChIJq1Dk678GzoURCig0eNJLMlI,PROFUGOS GARAGE,19.3016517,-99.1745318,4.8,92,1,36.0,7,[30],False,False,False,False,False,False,True
ChIJt9F6ePcBzoUR57SxUQ3swnU,KNGASLP,19.3013332,-99.1745154,4.9,21,1,160.0,7,[30],False,False,False,False,False,False,True
ChIJ8QzxUGMAzoURcRC_oqrnGwE,TALLER TLALPAN SIX SIGMA,19.2950086,-99.1783221,3.7,3,0,88.0,7,[30],False,False,False,False,False,False,True
ChIJxZXIyWUAzoURrMQdrwjqmJo,AUTOELECTRICO KENNEDY,19.2992746,-99.1746094,4.2,6,1,36.0,7,[30],False,False,False,False,False,False,True
ChIJf-RMfwABzoURwpIq7JJHKcs,MECANICA DE PRECISION MAXIMUS WORKSHOP,19.2943628,-99.1794061,5.0,15,1,56.0,7,[30],False,False,False,False,False,False,True
ChIJ1Q9tpGABzoURkUU5wSke0zE,JERRY'S MOTOSERVICIO,19.3012152,-99.1741583,5.0,3,0,36.0,7,[30],False,False,False,False,False,False,True
ChIJxzSh6PABzoUR74SRIDsqg2Y,TALLER MECANICO BAUTISTA,19.2942506,-99.1796817,4.0,1,0,56.0,7,[30],False,False,False,False,False,False,True
ChIJXbjUFU8BzoURGQP8DfT_Y-k,SERVICIO HOJALATERIA Y PINTURA IMAGEN AUTOMOTRIZ SPORT- BMW-MERCEDES BENZ-AUDI-MINICOOPER-PORSCHE-MULTIMARCA,19.294122,-99.1799409,4.9,148,1,56.0,7,[30],False,False,False,False,False,False,True
ChIJEwtENWQAzoUR0aBYcqqksPs,RUSH REFACCIONARIA,19.2987313,-99.1746066,4.4,18,1,36.0,7,"[41, 30]",False,False,False,False,False,False,True
ChIJKzGEef7_zYURR5Q6CACW_8M,XTREME HYBRID,19.301846,-99.1739951,4.6,55,1,36.0,7,[30],False,False,False,False,False,False,True
ChIJTZIzOQABzoURvN8-TQy_ztw,CLUB HYBRID ISIDRO FABELA,19.301852,-99.173981,5.0,3,1,36.0,7,[30],False,False,False,False,False,False,True
ChIJ-2yMFQABzoURQdRpOy8Uupc,TALLER MECANICO,19.2936695,-99.1824348,4.6,47,1,98.0,7,[30],False,False,False,False,False,False,True
ChIJjZbYU94BzoURp9MhQhatyOY,CARPIMOTOS,19.302428,-99.1739981,5.0,1,1,36.0,7,[30],False,False,False,False,False,False,True
ChIJr5XF0HEBzoURag-jFJLG1o0,ARTESANO AUTOMOTRIZ WRAP,19.3006613,-99.1739636,4.7,8,1,,7,[30],False,False,False,False,False,False,True
ChIJdROkZmMAzoURm7y7zQzYIkc,PLAZA AUTOMOTRIZ,19.2952576,-99.1771265,4.1,367,1,88.0,7,[30],False,False,False,False,False,False,True
ChIJM1lbT_kBzoURqhDdhS7G_1Y,SERVICIO HOJALATERIA Y PINTURA AUTOMOTRIZ CDMX- TE GUSTARIA DEJAR TU AUTO COMO NUEVO?,19.2938586,-99.1798911,5.0,14,1,56.0,7,[30],False,False,False,False,False,False,True
ChIJcanPhlABzoURuEs5Dfqu9Bg,KAWASAKI CAPITAL - INSURGENTES,19.2935758,-99.1804471,4.7,1464,1,104.0,7,"[30, 41]",False,False,False,False,False,False,True
ChIJ__8A3GUAzoURqITgRgcFtp4,SERVICIO MAGALI,19.2999275,-99.1736784,5.0,1,1,36.0,7,"[30, 41]",False,False,False,False,False,False,True
ChIJbVvwWxABzoURQS43DK443eY,MECANICO ENRIQUE,19.2948928,-99.1769482,5.0,52,1,161.0,7,[30],False,False,False,False,False,False,True
ChIJJQd0b2MAzoURKWHR9E0-0ZA,SERVICIO CORREA,19.2948927,-99.1769482,4.5,24,1,56.0,7,[30],False,False,False,False,False,False,True
ChIJ8UIObmQAzoUREQbGtL8NxQM,TALLER HOJALATERIA Y PINTURA,19.2964979,-99.175153,3.7,6,1,136.0,7,[30],False,False,False,False,False,False,True
ChIJrW0qyn0BzoUR8HEiRZgW6C8,ESCUDERIA VALTIERRA,19.2997808,-99.1735417,4.5,2,1,36.0,7,[30],False,False,False,False,False,False,True
ChIJWfAx23wAzoURAmYMo3qhTTA,MEINEKE CAR CARE CENTER,19.2933247,-99.179742,4.1,80,1,,7,[30],False,False,False,False,False,False,True
ChIJH4cS0XwAzoURgpkSiJ606wI,LA REFACCIONARIA,19.2931617,-99.1793459,4.4,34,1,162.0,7,[30],False,False,False,False,False,False,True
ChIJI3LbA2YAzoUR9a2ln5HVQIg,SERVICIO ELECTRICO VELASCO,19.3015477,-99.1729429,4.4,5,0,36.0,7,[30],False,False,False,False,False,False,True
